Parcel Number	Building Name	Building Address	Postal Code	Floor Area	Property Type - Self Selected	PIM Link	Year Built	Energy Audit Due Date	Energy Audit Status	point	longitude	latitude	analysis_neighborhood	supervisor_district	data_as_of	data_loaded_at
3764/014	425 2ND ST	425 2ND ST	94105	48910	Commercial	https://sfplanninggis.org/PIM/?tab=Property&search=3764/014	1919	04/01/2024	Pending - Contracted	POINT (-122.394414458 37.784129921)	-122.39441445768237	37.784129920564325	Financial District/South Beach	6	2025/03/10 10:44:55 AM	2025/03/10 11:04:05 AM
0030/012A	2550 Taylor St	2550 Taylor St	94133	28822	Commercial	https://sfplanninggis.org/PIM/?tab=Property&search=0030/012A	1973	04/01/2027	Upcoming	POINT (-122.414997386 37.805680907)	-122.41499738640687	37.805680906640866	North Beach	3	2025/03/10 10:44:55 AM	2025/03/10 11:04:05 AM
0221/044	1250 JONES ST	1250 JONES ST	94108	119446	Mixed Residential	https://sfplanninggis.org/PIM/?tab=Property&search=0221/044	1929			POINT (-122.414048738 37.793071344)	-122.41404873760477	37.79307134379058	Nob Hill	3	2025/03/10 10:44:55 AM	2025/03/10 11:04:05 AM
5423A/012	2540 Newhall St.	2540 NEWHALL ST.	94124	34500	Commercial	https://sfplanninggis.org/PIM/?tab=Property&search=5423A/012	0	04/01/2014	Did Not Comply	POINT (-122.398915876 37.729183265)	-122.39891587587296	37.72918326483608	Bayview Hunters Point	10	2025/03/10 10:44:55 AM	2025/03/10 11:04:05 AM
0192/019	855 JACKSON ST	855 JACKSON ST	94108	15626	Commercial	https://sfplanninggis.org/PIM/?tab=Property&search=0192/019	1958	04/01/2021	Pending - Contracted	POINT (-122.409458219 37.795479307)	-122.409458218593	37.79547930702985	Chinatown	3	2025/03/10 10:44:55 AM	2025/03/10 11:04:05 AM
0306/006	418 GEARY ST	418 GEARY ST	94102	100580	Mixed Residential	https://sfplanninggis.org/PIM/?tab=Property&search=0306/006	1911			POINT (-122.410375793 37.787264754)	-122.4103757929056	37.78726475374118	Tenderloin	3	2025/03/10 10:44:55 AM	2025/03/10 11:04:05 AM
5719/005	3743 MISSION ST	3743 MISSION ST	94110	15000	Commercial	https://sfplanninggis.org/PIM/?tab=Property&search=5719/005	1926	04/01/2029	Upcoming	POINT (-122.423886875 37.736570215)	-122.42388687483731	37.73657021545484	Bernal Heights	9	2025/03/10 10:44:55 AM	2025/03/10 11:04:05 AM
1068/001J	2900 GEARY BLVD	2900 GEARY BLVD	94118	10737	Commercial	https://sfplanninggis.org/PIM/?tab=Property&search=1068/001J	1929	04/01/2024	Did Not Comply	POINT (-122.450460625 37.782368322)	-122.45046062533069	37.78236832234007	Presidio Heights	2	2025/03/10 10:44:55 AM	2025/03/10 11:04:05 AM
1145/003-J	Dorraine Zief Law Library	2101 Fulton St	94117	67014	Commercial	https://sfplanninggis.org/PIM/?tab=Property&search=1145/003-J		04/01/2022	Did Not Comply	POINT (-122.450139134 37.776445656)	-122.45013913414225	37.776445655890896	Lone Mountain/USF	1	2025/03/10 10:44:55 AM	2025/03/10 11:04:05 AM
0136/005	962 BATTERY ST	962 BATTERY ST	94111	18267	Commercial	https://sfplanninggis.org/PIM/?tab=Property&search=0136/005	1910	04/01/2030	Upcoming	POINT (-122.401046854 37.800353079)	-122.40104685373926	37.80035307893162	Financial District/South Beach	3	2025/03/10 10:44:55 AM	2025/03/10 11:04:05 AM
0750/019	1535 EDDY ST	1535 EDDY ST	94115	486750	Mixed Residential	https://sfplanninggis.org/PIM/?tab=Property&search=0750/019	1993			POINT (-122.433056769 37.780857535)	-122.4330567692807	37.78085753497708	Western Addition	5	2025/03/10 10:44:55 AM	2025/03/10 11:04:05 AM
0194/006	720 Washington	720 WASHINGTON ST	94108	15507	Commercial	https://sfplanninggis.org/PIM/?tab=Property&search=0194/006	1964	04/01/2029	Upcoming	POINT (-122.405364242 37.795440014)	-122.4053642419961	37.795440013672184	Chinatown	3	2025/03/10 10:44:55 AM	2025/03/10 11:04:05 AM
0101/031	721 Filbert Street Garage	721 FILBERT ST	94133	23836	Commercial	https://sfplanninggis.org/PIM/?tab=Property&search=0101/031	1907	04/01/2019	Did Not Comply	POINT (-122.41168167 37.800801565)	-122.4116816702976	37.80080156538707	Chinatown	3	2025/03/10 10:44:55 AM	2025/03/10 11:04:05 AM
3717/022	123 MISSION STREET	123 MISSION ST	94105	418566	Commercial	https://sfplanninggis.org/PIM/?tab=Property&search=3717/022	1987	04/01/2026	Upcoming	POINT (-122.394339051 37.791882224)	-122.39433905101042	37.79188222445716	Financial District/South Beach	6	2025/03/10 10:44:55 AM	2025/03/10 11:04:05 AM
3513/080	1781-San Francisco-Otis Street	190 Otis Street	94103	74936	Commercial	https://sfplanninggis.org/PIM/?tab=Property&search=3513/080	1909	04/01/2027	Upcoming	POINT (-122.420868294 37.770417187)	-122.42086829416313	37.770417186654946	Mission	6	2025/03/10 10:44:55 AM	2025/03/10 11:04:05 AM
0271/012	564 BUSH ST	564 BUSH ST	94108	14150	Commercial	https://sfplanninggis.org/PIM/?tab=Property&search=0271/012	1907	04/01/2014	Did Not Comply	POINT (-122.406537821 37.790743221)	-122.40653782085498	37.790743220758145	Financial District/South Beach	3	2025/03/10 10:44:55 AM	2025/03/10 11:04:05 AM
0263/011	101 California	101 CALIFORNIA ST	94111	1464955	Commercial	https://sfplanninggis.org/PIM/?tab=Property&search=0263/011	1983	04/01/2029	Upcoming	POINT (-122.398098612 37.792948967)	-122.39809861205279	37.79294896724541	Financial District/South Beach	3	2025/03/10 10:44:55 AM	2025/03/10 11:04:05 AM
3785/132	601 Brannan Street, LLC	601 BRANNAN ST	94107	73666	Commercial	https://sfplanninggis.org/PIM/?tab=Property&search=3785/132	0	04/01/2025	Upcoming	POINT (-122.398782331 37.775892977)	-122.39878233101095	37.775892977304224	Mission Bay	6	2025/03/10 10:44:55 AM	2025/03/10 11:04:05 AM
3704/021	972 Mission LLC	972 MISSION ST	94103	66000	Commercial	https://sfplanninggis.org/PIM/?tab=Property&search=3704/021	1925	04/01/2018	Did Not Comply	POINT (-122.408363268 37.781706695)	-122.40836326791332	37.781706695261	South of Market	6	2025/03/10 10:44:55 AM	2025/03/10 11:04:05 AM
0242/001	665 GRANT AVE	665 GRANT AVE	94108	10114	Commercial	https://sfplanninggis.org/PIM/?tab=Property&search=0242/001	1908	04/01/2025	Upcoming	POINT (-122.406229291 37.79319712)	-122.40622929066653	37.793197120045924	Chinatown	3	2025/03/10 10:44:55 AM	2025/03/10 11:04:05 AM
0293/008	Grant Avenue	220 GRANT AVE	94108	25170	Commercial	https://sfplanninggis.org/PIM/?tab=Property&search=0293/008	1908	04/01/2029	Upcoming	POINT (-122.405010939 37.789120795)	-122.40501093931037	37.78912079537115	Financial District/South Beach	3	2025/03/10 10:44:55 AM	2025/03/10 11:04:05 AM
0345/005	240 GOLDEN GATE AVE	240 GOLDEN GATE AVE	94102	29482	Commercial	https://sfplanninggis.org/PIM/?tab=Property&search=0345/005	1907	04/01/2022	Did Not Comply	POINT (-122.414628783 37.782069195)	-122.41462878337914	37.7820691946645	Tenderloin	5	2025/03/10 10:44:55 AM	2025/03/10 11:04:05 AM
3708/097	25 JESSIE ST	25 JESSIE ST	94105	127215	Mixed Residential	https://sfplanninggis.org/PIM/?tab=Property&search=3708/097	1982			POINT (-122.398640048 37.789653133)	-122.39864004793493	37.78965313279474	Financial District/South Beach	6	2025/03/10 10:44:55 AM	2025/03/10 11:04:05 AM
3524/066	San Francisco Costco	450 10TH ST	94103	132014	Commercial	https://sfplanninggis.org/PIM/?tab=Property&search=3524/066	1994	04/01/2024	Pending - Contracted	POINT (-122.411106006 37.770487675)	-122.41110600566199	37.770487674990235	South of Market	6	2025/03/10 10:44:55 AM	2025/03/10 11:04:05 AM
0666/030	1603 PINE ST	1603 PINE ST	94109	524272	Mixed Residential	https://sfplanninggis.org/PIM/?tab=Property&search=0666/030	1997			POINT (-122.422955607 37.789050145)	-122.42295560651793	37.789050144592295	Western Addition	2	2025/03/10 10:44:55 AM	2025/03/10 11:04:05 AM
4000/053	208 PENNSYLVANIA AVE	208 PENNSYLVANIA AVE	94107	75000	Mixed Residential	https://sfplanninggis.org/PIM/?tab=Property&search=4000/053	2000			POINT (-122.394012947 37.763462974)	-122.39401294741764	37.763462973528654	Potrero Hill	10	2025/03/10 10:44:55 AM	2025/03/10 11:04:05 AM
3705/042-A	San Francisco Center	865 MARKET ST	94103	605220	Commercial	https://sfplanninggis.org/PIM/?tab=Property&search=3705/042-A		04/01/2025	Upcoming	POINT (-122.407158343 37.783946923)	-122.4071583434807	37.78394692308082	South of Market	6	2025/03/10 10:44:55 AM	2025/03/10 11:04:05 AM
0136/007	69 GREEN ST LLC	69 GREEN ST	94111	13470	Commercial	https://sfplanninggis.org/PIM/?tab=Property&search=0136/007	1986	04/01/2024	Did Not Comply	POINT (-122.400731497 37.800329299)	-122.40073149722888	37.80032929945566	Financial District/South Beach	3	2025/03/10 10:44:55 AM	2025/03/10 11:04:05 AM
3615/023	2551 MISSION ST	2551 MISSION ST	94110	18654	Commercial	https://sfplanninggis.org/PIM/?tab=Property&search=3615/023	1912	04/01/2027	Upcoming	POINT (-122.418469449 37.756255158)	-122.41846944902053	37.75625515802404	Mission	9	2025/03/10 10:44:55 AM	2025/03/10 11:04:05 AM
0664/031	1760 Bush	1760 BUSH ST	94109	70835	Mixed Residential	https://sfplanninggis.org/PIM/?tab=Property&search=0664/031	1972			POINT (-122.426411776 37.788182744)	-122.42641177619745	37.78818274351542	Pacific Heights	5	2025/03/10 10:44:55 AM	2025/03/10 11:04:05 AM
3780/004D	808 BRANNAN ST	808 BRANNAN ST	94103	60864	Commercial	https://sfplanninggis.org/PIM/?tab=Property&search=3780/004D	1930	04/01/2027	Upcoming	POINT (-122.403742022 37.772996305)	-122.40374202192187	37.77299630474769	South of Market	6	2025/03/10 10:44:55 AM	2025/03/10 11:04:05 AM
2411/001	401 TARAVAL ST	401 TARAVAL ST	94116	20400	Commercial	https://sfplanninggis.org/PIM/?tab=Property&search=2411/001	1972	04/01/2025	Upcoming	POINT (-122.470456485 37.743030912)	-122.47045648499946	37.74303091185753	West of Twin Peaks	7	2025/03/10 10:44:55 AM	2025/03/10 11:04:05 AM
0344/010	Tenderloin Family Housing	201 TURK ST	94102	196708	Mixed Residential	https://sfplanninggis.org/PIM/?tab=Property&search=0344/010	1993			POINT (-122.412942363 37.782649022)	-122.41294236266236	37.78264902168953	Tenderloin	5	2025/03/10 10:44:55 AM	2025/03/10 11:04:05 AM
5587/003	2140 PALOU AVE	2140 PALOU AVE	94124	18003	Commercial	https://sfplanninggis.org/PIM/?tab=Property&search=5587/003	1976	04/01/2022	Did Not Comply	POINT (-122.40098857 37.740257081)	-122.40098857004273	37.74025708082683	Bayview Hunters Point	10	2025/03/10 10:44:55 AM	2025/03/10 11:04:05 AM
1780/045	Sunset Supermarket	2415 IRVING ST	94122	16138	Commercial	https://sfplanninggis.org/PIM/?tab=Property&search=1780/045	1950	04/01/2020	Did Not Comply	POINT (-122.484046378 37.762999997)	-122.48404637803407	37.7629999969347	Sunset/Parkside	4	2025/03/10 10:44:55 AM	2025/03/10 11:04:05 AM
3557/064	345 CHURCH ST	345 CHURCH ST	94114	53029	Mixed Residential	https://sfplanninggis.org/PIM/?tab=Property&search=3557/064	1983			POINT (-122.428127624 37.765550084)	-122.42812762389808	37.76555008378791	Castro/Upper Market	8	2025/03/10 10:44:55 AM	2025/03/10 11:04:05 AM
0645/036	Larkin Pine Senior Housing	1400 PINE ST	94109	116504	Mixed Residential	https://sfplanninggis.org/PIM/?tab=Property&search=0645/036	1993			POINT (-122.419250322 37.790065015)	-122.41925032242469	37.79006501455973	Nob Hill	3	2025/03/10 10:44:55 AM	2025/03/10 11:04:05 AM
0022/010	Kimpton Alton Hotel Fisherman's Wharf	475 BEACH ST	94133	126250	Commercial	https://sfplanninggis.org/PIM/?tab=Property&search=0022/010	1983	04/01/2030	Upcoming	POINT (-122.416826955 37.806738422)	-122.41682695492143	37.80673842212645	North Beach	3	2025/03/10 10:44:55 AM	2025/03/10 11:04:05 AM
3776/011	414 Brannan Street	414 BRANNAN ST	94107	19249	Commercial	https://sfplanninggis.org/PIM/?tab=Property&search=3776/011	1924	04/01/2027	Upcoming	POINT (-122.394868491 37.779930779)	-122.39486849126807	37.77993077908349	South of Market	6	2025/03/10 10:44:55 AM	2025/03/10 11:04:05 AM
0749/002D	1310 TURK ST	1310 TURK ST	94115	56557	Mixed Residential	https://sfplanninggis.org/PIM/?tab=Property&search=0749/002D	1927			POINT (-122.430808519 37.780831157)	-122.43080851855973	37.78083115682806	Western Addition	5	2025/03/10 10:44:55 AM	2025/03/10 11:04:05 AM
0317/007	Fifth Church of Christ, Scientist	450 OFARRELL ST	94102	26904	Commercial	https://sfplanninggis.org/PIM/?tab=Property&search=0317/007	1923	04/01/2027	Upcoming	POINT (-122.412403233 37.786145837)	-122.41240323282045	37.786145836606536	Tenderloin	5	2025/03/10 10:44:55 AM	2025/03/10 11:04:05 AM
0779/091	988 FULTON ST	988 FULTON ST	94117	137685	Mixed Residential	https://sfplanninggis.org/PIM/?tab=Property&search=0779/091	1999			POINT (-122.432511534 37.778036082)	-122.4325115340368	37.77803608199778	Western Addition	5	2025/03/10 10:44:55 AM	2025/03/10 11:04:05 AM
1058/012	10 LUPINE AVE	10 LUPINE AVE	94118	174005	Mixed Residential	https://sfplanninggis.org/PIM/?tab=Property&search=1058/012	1957			POINT (-122.449258749 37.783949599)	-122.44925874944396	37.78394959907055	Presidio Heights	2	2025/03/10 10:44:55 AM	2025/03/10 11:04:05 AM
0287/001	251 Kearny Building	251 KEARNY ST	94108	31978	Commercial	https://sfplanninggis.org/PIM/?tab=Property&search=0287/001	1908	04/01/2030	Upcoming	POINT (-122.40422921 37.790548542)	-122.404229209554	37.790548542103714	Financial District/South Beach	3	2025/03/10 10:44:55 AM	2025/03/10 11:04:05 AM
3721/023	Adolph Gasser Retail store	181 2ND ST	94105	17500	Commercial	https://sfplanninggis.org/PIM/?tab=Property&search=3721/023	1911	04/01/2029	Upcoming	POINT (-122.398362186 37.787174829)	-122.39836218583483	37.7871748287037	Financial District/South Beach	6	2025/03/10 10:44:55 AM	2025/03/10 11:04:05 AM
6309/004A	333 SCHWERIN ST	333 SCHWERIN ST	94134	274000	Commercial	https://sfplanninggis.org/PIM/?tab=Property&search=6309/004A	1955	04/01/2020	Did Not Comply	POINT (-122.411118123 37.708785431)	-122.41111812311615	37.70878543128648	Visitacion Valley	10	2025/03/10 10:44:55 AM	2025/03/10 11:04:05 AM
0696/024	Archdiocese of San Francisco Pastoral Center	9 PETER YORKE WAY	94109	47800	Commercial	https://sfplanninggis.org/PIM/?tab=Property&search=0696/024	1962	04/01/2013	Did Not Comply	POINT (-122.42368549 37.785834885)	-122.42368549021036	37.78583488457873	Western Addition	2	2025/03/10 10:44:55 AM	2025/03/10 11:04:05 AM
0570/031	1680 BROADWAY	1690 BROADWAY	94109	69915	Mixed Residential	https://sfplanninggis.org/PIM/?tab=Property&search=0570/031	1975			POINT (-122.424787593 37.795872077)	-122.42478759336862	37.79587207676178	Pacific Heights	2	2025/03/10 10:44:55 AM	2025/03/10 11:04:05 AM
3533/007	San Francisco Friends School	250 VALENCIA ST	94103	71874	Commercial	https://sfplanninggis.org/PIM/?tab=Property&search=3533/007	1907	04/01/2020	Did Not Comply	POINT (-122.422908237 37.768979027)	-122.42290823738881	37.76897902689589	Mission	9	2025/03/10 10:44:55 AM	2025/03/10 11:04:05 AM
0269/028	350 Bush Street	350 Bush St	94104	470115	Commercial	https://sfplanninggis.org/PIM/?tab=Property&search=0269/028	2018	04/01/2028	Upcoming	POINT (-122.40330374 37.791311485)	-122.4033037399901	37.791311484718776	Financial District/South Beach	3	2025/03/10 10:44:55 AM	2025/03/10 11:04:05 AM
4025/003A	Marco Fine Furniture	650 POTRERO AVE	94110	24004	Commercial	https://sfplanninggis.org/PIM/?tab=Property&search=4025/003A	1936	04/01/2020	Did Not Comply	POINT (-122.407459668 37.761174333)	-122.40745966835875	37.76117433289851	Mission	9	2025/03/10 10:44:55 AM	2025/03/10 11:04:05 AM
3788/020	601 3RD ST	601 3RD ST	94107	14170	Commercial	https://sfplanninggis.org/PIM/?tab=Property&search=3788/020	1920	04/01/2029	Upcoming	POINT (-122.393767295 37.780077189)	-122.39376729456346	37.780077189393865	Financial District/South Beach	6	2025/03/10 10:44:55 AM	2025/03/10 11:04:05 AM
0141/003B	100 Broadway	100 BROADWAY	94111	24000	Commercial	https://sfplanninggis.org/PIM/?tab=Property&search=0141/003B	1927	04/01/2024	Did Not Comply	POINT (-122.400263583 37.798864081)	-122.4002635834947	37.798864080514726	Financial District/South Beach	3	2025/03/10 10:44:55 AM	2025/03/10 11:04:05 AM
3519/067	346 9TH ST	346 9TH ST	94103	25200	Commercial	https://sfplanninggis.org/PIM/?tab=Property&search=3519/067	1920	04/01/2026	Upcoming	POINT (-122.411257729 37.77312003)	-122.41125772865568	37.77312003032877	South of Market	6	2025/03/10 10:44:55 AM	2025/03/10 11:04:05 AM
0334/006	410 EDDY ST	410 EDDY ST	94109	59970	Mixed Residential	https://sfplanninggis.org/PIM/?tab=Property&search=0334/006	1907			POINT (-122.414603894 37.783896517)	-122.41460389397889	37.78389651680079	Tenderloin	5	2025/03/10 10:44:55 AM	2025/03/10 11:04:05 AM
0548/022	2330 Polk St	2330 POLK ST	94109	21502	Commercial	https://sfplanninggis.org/PIM/?tab=Property&search=0548/022	1926	04/01/2027	Upcoming	POINT (-122.421861633 37.798340709)	-122.421861632741	37.79834070944268	Russian Hill	3	2025/03/10 10:44:55 AM	2025/03/10 11:04:05 AM
3777/073	548 BRANNAN ST	548 BRANNAN ST	94107	223030	Mixed Residential	https://sfplanninggis.org/PIM/?tab=Property&search=3777/073	2003			POINT (-122.397819969 37.77777116)	-122.39781996897611	37.77777115988512	South of Market	6	2025/03/10 10:44:55 AM	2025/03/10 11:04:05 AM
0566/014A	2090 BROADWAY	2090 BROADWAY	94115	60419	Mixed Residential	https://sfplanninggis.org/PIM/?tab=Property&search=0566/014A	1936			POINT (-122.431464923 37.795019048)	-122.43146492312863	37.795019048117176	Pacific Heights	2	2025/03/10 10:44:55 AM	2025/03/10 11:04:05 AM
3744/002-A	Hills Plaza I - 345 Spear Street	345 SPEAR ST	94105	578104	Commercial	https://sfplanninggis.org/PIM/?tab=Property&search=3744/002-A	1991	04/01/2029	Upcoming	POINT (-122.389757394 37.789803299)	-122.38975739444082	37.78980329858977	Financial District/South Beach	6	2025/03/10 10:44:55 AM	2025/03/10 11:04:05 AM
0298/008	The Andrews Hotel	624 POST ST	94109	19570	Commercial	https://sfplanninggis.org/PIM/?tab=Property&search=0298/008	1907	04/01/2019	Did Not Comply	POINT (-122.412285705 37.787983705)	-122.41228570464904	37.78798370545385	Nob Hill	3	2025/03/10 10:44:55 AM	2025/03/10 11:04:05 AM
7381/161	208 LAKE MERCED BLVD	208 LAKE MERCED BLVD	94132	200000	Multifamily	https://sfplanninggis.org/PIM/?tab=Property&search=7381/161	1975			POINT (-122.483372966 37.713388041)	-122.48337296554314	37.71338804113943	Lakeshore	7	2025/03/10 10:44:55 AM	2025/03/10 11:04:05 AM
5321/051	All Hallows Community	1711 OAKDALE AVE	94124	73879	Mixed Residential	https://sfplanninggis.org/PIM/?tab=Property&search=5321/051				POINT (-122.392706399 37.73561829)	-122.39270639901716	37.73561828993389	Bayview Hunters Point	10	2025/03/10 10:44:55 AM	2025/03/10 11:04:05 AM
1213/011A	2255 Hayes	2255 HAYES ST	94117	55250	Commercial	https://sfplanninggis.org/PIM/?tab=Property&search=1213/011A	1939	04/01/2020	Did Not Comply	POINT (-122.453341511 37.772730877)	-122.45334151069942	37.772730876501505	Lone Mountain/USF	5	2025/03/10 10:44:55 AM	2025/03/10 11:04:05 AM
0294/007	220 POST ST	220 POST ST	94108	38400	Commercial	https://sfplanninggis.org/PIM/?tab=Property&search=0294/007	1907	04/01/2013	Did Not Comply	POINT (-122.405715964 37.788907894)	-122.40571596397851	37.78890789449607	Financial District/South Beach	3	2025/03/10 10:44:55 AM	2025/03/10 11:04:05 AM
0295/008	Sir Francis Drake / Beacon Grand Hotel	432 POWELL ST	94108	252000	Commercial	https://sfplanninggis.org/PIM/?tab=Property&search=0295/008	1930	04/01/2024	Did Not Comply	POINT (-122.40822615 37.78898444)	-122.40822614970546	37.78898444018506	Financial District/South Beach	3	2025/03/10 10:44:55 AM	2025/03/10 11:04:05 AM
7518/036	5173 DIAMOND HEIGHTS BLVD	5173 DIAMOND HEIGHTS BLVD	94131	85928	Mixed Residential	https://sfplanninggis.org/PIM/?tab=Property&search=7518/036	1980			POINT (-122.439675956 37.745954879)	-122.43967595576694	37.74595487932272	Noe Valley	8	2025/03/10 10:44:55 AM	2025/03/10 11:04:05 AM
0666/006	1522 BUSH ST	1522 BUSH ST	94109	11533	Commercial	https://sfplanninggis.org/PIM/?tab=Property&search=0666/006	1916	04/01/2022	Did Not Comply	POINT (-122.422641167 37.788663807)	-122.42264116733836	37.788663807107476	Western Addition	2	2025/03/10 10:44:55 AM	2025/03/10 11:04:05 AM
1094/001	2675 Geary Blvd	2675 GEARY BLVD	94115	494418	Commercial	https://sfplanninggis.org/PIM/?tab=Property&search=1094/001	1961	04/01/2030	Upcoming	POINT (-122.445865033 37.781853468)	-122.44586503300769	37.781853467606425	Lone Mountain/USF	2	2025/03/10 10:44:55 AM	2025/03/10 11:04:05 AM
0242/002	Far East Cafe	631 GRANT AVE	94108	18906	Commercial	https://sfplanninggis.org/PIM/?tab=Property&search=0242/002	1908	04/01/2013	Pending - Contracted	POINT (-122.40636741 37.792989859)	-122.40636741015945	37.79298985944472	Chinatown	3	2025/03/10 10:44:55 AM	2025/03/10 11:04:05 AM
3757/067	407 09TH ST	1275 HARRISON ST	94103	71298	Mixed Residential	https://sfplanninggis.org/PIM/?tab=Property&search=3757/067	1936			POINT (-122.409180173 37.772491978)	-122.40918017333253	37.77249197758354	South of Market	6	2025/03/10 10:44:55 AM	2025/03/10 11:04:05 AM
8707/003	355 BERRY ST	355 BERRY ST	94107	296800	Mixed Residential	https://sfplanninggis.org/PIM/?tab=Property&search=8707/003	2007			POINT (-122.39704097 37.772363929)	-122.3970409703867	37.77236392868907	Mission Bay	6	2025/03/10 10:44:55 AM	2025/03/10 11:04:05 AM
3941/020	0161-San Francisco	590 20th St	94107	58200	Commercial	https://sfplanninggis.org/PIM/?tab=Property&search=3941/020	1916	04/01/2027	Upcoming	POINT (-122.384972464 37.761233247)	-122.38497246407627	37.761233247128644	Potrero Hill	10	2025/03/10 10:44:55 AM	2025/03/10 11:04:05 AM
0296/006	400 POST ST	400 POST ST	94102	61807	Commercial	https://sfplanninggis.org/PIM/?tab=Property&search=0296/006	1909	04/01/2020	Did Not Comply	POINT (-122.408830477 37.788494269)	-122.40883047736278	37.78849426886075	Nob Hill	3	2025/03/10 10:44:55 AM	2025/03/10 11:04:05 AM
8704/004	360 BERRY ST	360 BERRY ST	94107	160936	Multifamily	https://sfplanninggis.org/PIM/?tab=Property&search=8704/004	2017			POINT (-122.397263331 37.773034481)	-122.39726333078325	37.773034480912635	Mission Bay	6	2025/03/10 10:44:55 AM	2025/03/10 11:04:05 AM
8707/120	335 BERRY ST	335 BERRY ST	94107	102838	Mixed Residential	https://sfplanninggis.org/PIM/?tab=Property&search=8707/120	2009			POINT (-122.396307821 37.772950844)	-122.39630782112238	37.77295084393695	Mission Bay	6	2025/03/10 10:44:55 AM	2025/03/10 11:04:05 AM
0624/020	1835 FRANKLIN ST	1835 FRANKLIN ST	94109	133340	Mixed Residential	https://sfplanninggis.org/PIM/?tab=Property&search=0624/020	1965			POINT (-122.424607633 37.791564419)	-122.42460763259929	37.79156441876493	Pacific Heights	2	2025/03/10 10:44:55 AM	2025/03/10 11:04:05 AM
3733/081	Pacific & Energy Center	851 HOWARD ST	94103	32139	Commercial	https://sfplanninggis.org/PIM/?tab=Property&search=3733/081	1924	04/01/2022	Did Not Comply	POINT (-122.40349488 37.782123949)	-122.40349488035415	37.78212394929791	South of Market	6	2025/03/10 10:44:55 AM	2025/03/10 11:04:05 AM
3967/028	350 ALABAMA ST	350 ALABAMA ST	94110	54842	Mixed Residential	https://sfplanninggis.org/PIM/?tab=Property&search=3967/028	2003			POINT (-122.412705771 37.764809969)	-122.41270577077613	37.76480996940177	Mission	9	2025/03/10 10:44:55 AM	2025/03/10 11:04:05 AM
3731/095	1025 HOWARD ST	1025 HOWARD ST	94103	18387	Commercial	https://sfplanninggis.org/PIM/?tab=Property&search=3731/095	1939	04/01/2014	Did Not Comply	POINT (-122.407523721 37.778948054)	-122.40752372147004	37.77894805428098	South of Market	6	2025/03/10 10:44:55 AM	2025/03/10 11:04:05 AM
4991/601	151 EXECUTIVE PARK BL	151 EXECUTIVE PARK BL	94124	95700	Multifamily	https://sfplanninggis.org/PIM/?tab=Property&search=4991/601				POINT (-122.395114268 37.711837788)	-122.39511426786608	37.711837788033876	Bayview Hunters Point	10	2025/03/10 10:44:55 AM	2025/03/10 11:04:05 AM
0262/008	Dalum Corporation	130 BATTERY ST	94111	33863	Commercial	https://sfplanninggis.org/PIM/?tab=Property&search=0262/008	1986	04/01/2024	Pending - Contracted	POINT (-122.399493411 37.792707564)	-122.39949341145935	37.792707563508046	Financial District/South Beach	3	2025/03/10 10:44:55 AM	2025/03/10 11:04:05 AM
3283/124	1830 OCEAN AVE	1830 OCEAN AVE	94112	120520	Mixed Residential	https://sfplanninggis.org/PIM/?tab=Property&search=3283/124	1985			POINT (-122.46163132 37.725626771)	-122.46163132002856	37.72562677128826	West of Twin Peaks	7	2025/03/10 10:44:55 AM	2025/03/10 11:04:05 AM
0084/008	Interland - 1265 Battery Street	1265 BATTERY ST	94111	94111	Commercial	https://sfplanninggis.org/PIM/?tab=Property&search=0084/008	1982	04/01/2029	Upcoming	POINT (-122.402267006 37.802861147)	-122.40226700624089	37.80286114714826	Financial District/South Beach	3	2025/03/10 10:44:55 AM	2025/03/10 11:04:05 AM
4034/006	Goodman 2 Art Complex	348 ARKANSAS ST	94107	119720	Mixed Residential	https://sfplanninggis.org/PIM/?tab=Property&search=4034/006	1996			POINT (-122.398765877 37.76188728)	-122.39876587730973	37.76188727990683	Potrero Hill	10	2025/03/10 10:44:55 AM	2025/03/10 11:04:05 AM
3930A/002	Safeway 1490	2300 16TH ST	94103	58247	Commercial	https://sfplanninggis.org/PIM/?tab=Property&search=3930A/002	1900	04/01/2021	Pending - Contracted	POINT (-122.409260146 37.766510941)	-122.40926014613926	37.766510940622524	Mission	9	2025/03/10 10:44:55 AM	2025/03/10 11:04:05 AM
2423/021	San Francisco Chinese Alliance Church	1150 VICENTE ST	94116	16570	Commercial	https://sfplanninggis.org/PIM/?tab=Property&search=2423/021	1988	04/01/2026	Upcoming	POINT (-122.479401685 37.739339044)	-122.47940168507543	37.73933904351648	Sunset/Parkside	4	2025/03/10 10:44:55 AM	2025/03/10 11:04:05 AM
3954/016	Alta Potrero (pt013)	1301 16th St	94103	208038	Mixed Residential	https://sfplanninggis.org/PIM/?tab=Property&search=3954/016	2019			POINT (-122.400239355 37.765845145)	-122.40023935450442	37.76584514501546	Mission Bay	10	2025/03/10 10:44:55 AM	2025/03/10 11:04:05 AM
3590/035	2205 MISSION ST	2205 MISSION ST	94110	18345	Commercial	https://sfplanninggis.org/PIM/?tab=Property&search=3590/035	1919	04/01/2020	Did Not Comply	POINT (-122.418945409 37.761681464)	-122.41894540871013	37.761681463761704	Mission	9	2025/03/10 10:44:55 AM	2025/03/10 11:04:05 AM
5559/016	225 BAY SHORE BLVD	225 BAY SHORE BLVD	94124	12004	Commercial	https://sfplanninggis.org/PIM/?tab=Property&search=5559/016	0	04/01/2013	Did Not Comply	POINT (-122.403754997 37.744386569)	-122.4037549970179	37.74438656873133	Bayview Hunters Point	10	2025/03/10 10:44:55 AM	2025/03/10 11:04:05 AM
0228/031	559 Clay Street	559 CLAY ST	94111	17654	Commercial	https://sfplanninggis.org/PIM/?tab=Property&search=0228/031	1906	04/01/2018	Pending - Contracted	POINT (-122.402523804 37.794497097)	-122.40252380353887	37.79449709709246	Chinatown	3	2025/03/10 10:44:55 AM	2025/03/10 11:04:05 AM
0794/028	555 FULTON ST	555 FULTON ST	94102	29345	Commercial	https://sfplanninggis.org/PIM/?tab=Property&search=0794/028	1957	04/01/2014	Did Not Comply	POINT (-122.425752278 37.778168042)	-122.42575227810019	37.77816804164811	Hayes Valley	5	2025/03/10 10:44:55 AM	2025/03/10 11:04:05 AM
3752/001	300 4th Street	300 4TH STREET	94107	13892	Commercial	https://sfplanninggis.org/PIM/?tab=Property&search=3752/001	1984	04/01/2019	Did Not Comply	POINT (-122.401195893 37.781741433)	-122.40119589283499	37.781741433236	South of Market	6	2025/03/10 10:44:55 AM	2025/03/10 11:04:05 AM
1084/005	Steve Krieger - 3535 Geary	3535 GEARY BLVD	94118	20500	Commercial	https://sfplanninggis.org/PIM/?tab=Property&search=1084/005	1936	04/01/2027	Upcoming	POINT (-122.456608739 37.780881819)	-122.45660873853407	37.7808818190159	Lone Mountain/USF	2	2025/03/10 10:44:55 AM	2025/03/10 11:04:05 AM
0241/025	650 California Street	650 CALIFORNIA ST	94108	567653	Commercial	https://sfplanninggis.org/PIM/?tab=Property&search=0241/025	1963	04/01/2026	Upcoming	POINT (-122.405207232 37.792936665)	-122.40520723173651	37.79293666472932	Chinatown	3	2025/03/10 10:44:55 AM	2025/03/10 11:04:05 AM
7226/023	Lakeside Medical Building	2645 OCEAN AVE	94132	23440	Commercial	https://sfplanninggis.org/PIM/?tab=Property&search=7226/023	1963	04/01/2018	Did Not Comply	POINT (-122.47418828 37.731653703)	-122.47418827971407	37.731653703495745	West of Twin Peaks	7	2025/03/10 10:44:55 AM	2025/03/10 11:04:05 AM
8710/009	701 CHINA BASIN ST	701 CHINA BASIN ST	94107	620814	Multifamily	https://sfplanninggis.org/PIM/?tab=Property&search=8710/009	2016			POINT (-122.393580205 37.771230282)	-122.3935802051652	37.77123028188509	Mission Bay	6	2025/03/10 10:44:55 AM	2025/03/10 11:04:05 AM
3756/032	325 9TH ST	325 9TH ST	94103	16875	Commercial	https://sfplanninggis.org/PIM/?tab=Property&search=3756/032	1919	04/01/2030	Upcoming	POINT (-122.411016789 37.773588513)	-122.4110167892485	37.77358851314447	South of Market	6	2025/03/10 10:44:55 AM	2025/03/10 11:04:05 AM
4106/030	895 INDIANA ST	895 INDIANA ST	94107	255866	Mixed Residential	https://sfplanninggis.org/PIM/?tab=Property&search=4106/030	2009			POINT (-122.390862988 37.759671684)	-122.39086298766672	37.75967168366944	Potrero Hill	10	2025/03/10 10:44:55 AM	2025/03/10 11:04:05 AM
3966/001	Lion Building	2525 16TH ST	94110	165000	Commercial	https://sfplanninggis.org/PIM/?tab=Property&search=3966/001	1924	04/01/2020	Did Not Comply	POINT (-122.411897042 37.765120818)	-122.4118970415172	37.7651208181287	Mission	9	2025/03/10 10:44:55 AM	2025/03/10 11:04:05 AM
0348/015	277 GOLDEN GATE AVE	277 GOLDEN GATE AVE	94102	63302	Multifamily	https://sfplanninggis.org/PIM/?tab=Property&search=0348/015				POINT (-122.414927028 37.781411949)	-122.41492702803062	37.78141194926351	Tenderloin	5	2025/03/10 10:44:55 AM	2025/03/10 11:04:05 AM
0215/001	1300 CLAY ST	1300 CLAY ST	94109	477734	Mixed Residential	https://sfplanninggis.org/PIM/?tab=Property&search=0215/001				POINT (-122.414882372 37.793621085)	-122.41488237176343	37.793621084914406	Nob Hill	3	2025/03/10 10:44:55 AM	2025/03/10 11:04:05 AM
2116/028	1900 19TH AVE	1900 19TH AVE	94116	16902	Commercial	https://sfplanninggis.org/PIM/?tab=Property&search=2116/028	0	04/01/2022	Did Not Comply	POINT (-122.475872323 37.752124176)	-122.47587232297064	37.75212417590524	Inner Sunset	7	2025/03/10 10:44:55 AM	2025/03/10 11:04:05 AM
3570/030	2973 16th Street	2973 16TH ST	94110	25650	Commercial	https://sfplanninggis.org/PIM/?tab=Property&search=3570/030	1925	04/01/2029	Upcoming	POINT (-122.419029062 37.764848987)	-122.41902906197231	37.764848987276885	Mission	9	2025/03/10 10:44:55 AM	2025/03/10 11:04:05 AM
3721/082	Mission & Shaw LLC	545 MISSION ST	94105	29309	Commercial	https://sfplanninggis.org/PIM/?tab=Property&search=3721/082	1906	04/01/2024	Did Not Comply	POINT (-122.398327121 37.78868556)	-122.39832712085764	37.78868555972832	Financial District/South Beach	6	2025/03/10 10:44:55 AM	2025/03/10 11:04:05 AM
3951/005	88 MISSOURI ST	88 MISSOURI ST	94107	10149	Commercial	https://sfplanninggis.org/PIM/?tab=Property&search=3951/005	1931	04/01/2026	Upcoming	POINT (-122.397116425 37.765472877)	-122.39711642470623	37.76547287664148	Mission Bay	10	2025/03/10 10:44:55 AM	2025/03/10 11:04:05 AM
3703/076	1019 Market Street	1019 MARKET ST	94103	75210	Commercial	https://sfplanninggis.org/PIM/?tab=Property&search=3703/076	1909	04/01/2025	Upcoming	POINT (-122.410417757 37.781560556)	-122.41041775721533	37.781560555919704	South of Market	6	2025/03/10 10:44:55 AM	2025/03/10 11:04:05 AM
4086/004	2230 BRYANT ST	2230 BRYANT ST	94110	57334	Multifamily	https://sfplanninggis.org/PIM/?tab=Property&search=4086/004	1900			POINT (-122.410012759 37.758672465)	-122.4100127588538	37.75867246480924	Mission	9	2025/03/10 10:44:55 AM	2025/03/10 11:04:05 AM
0710/027	10 BERTIE MINOR LN	10 BERTIE MINOR LN	94115	234000	Mixed Residential	https://sfplanninggis.org/PIM/?tab=Property&search=0710/027				POINT (-122.428618397 37.784242834)	-122.42861839660965	37.78424283445143	Western Addition	5	2025/03/10 10:44:55 AM	2025/03/10 11:04:05 AM
3781/001A	1045 BRYANT ST	1045 BRYANT ST	94103	32953	Commercial	https://sfplanninggis.org/PIM/?tab=Property&search=3781/001A	1916	04/01/2030	Upcoming	POINT (-122.407325598 37.771783739)	-122.40732559843111	37.771783739389065	South of Market	6	2025/03/10 10:44:55 AM	2025/03/10 11:04:05 AM
0335/027	Cova Hotel	655 ELLIS ST	94109	71441	Commercial	https://sfplanninggis.org/PIM/?tab=Property&search=0335/027	1969	04/01/2019	Pending - Contracted	POINT (-122.416999283 37.784008016)	-122.4169992829432	37.78400801640922	Tenderloin	5	2025/03/10 10:44:55 AM	2025/03/10 11:04:05 AM
0718/021	950 Van Ness Avenue, LLC	930 VAN NESS AVE	94109	50700	Commercial	https://sfplanninggis.org/PIM/?tab=Property&search=0718/021	1919	04/01/2024	Pending - Contracted	POINT (-122.42074363 37.784554126)	-122.42074363033012	37.784554125764096	Tenderloin	5	2025/03/10 10:44:55 AM	2025/03/10 11:04:05 AM
0567/038	1998 BROADWAY	1998 BROADWAY	94109	125036	Mixed Residential	https://sfplanninggis.org/PIM/?tab=Property&search=0567/038	1964			POINT (-122.429786846 37.795276696)	-122.42978684642391	37.795276695732795	Pacific Heights	2	2025/03/10 10:44:55 AM	2025/03/10 11:04:05 AM
0224/081	929 CLAY ST	929 CLAY ST	94108	17998	Commercial	https://sfplanninggis.org/PIM/?tab=Property&search=0224/081	1981	04/01/2022	Did Not Comply	POINT (-122.408322981 37.793850603)	-122.40832298117168	37.793850602830624	Chinatown	3	2025/03/10 10:44:55 AM	2025/03/10 11:04:05 AM
3725/015	938 HOWARD ST	938 HOWARD ST	94103	25500	Commercial	https://sfplanninggis.org/PIM/?tab=Property&search=3725/015	1924	04/01/2025	Upcoming	POINT (-122.406247626 37.780912496)	-122.40624762586224	37.780912496490245	South of Market	6	2025/03/10 10:44:55 AM	2025/03/10 11:04:05 AM
8721/029	1509-1519 03RD ST	1509-1519 03RD ST	94158	302084	Commercial	https://sfplanninggis.org/PIM/?tab=Property&search=8721/029	2021	04/01/2027	Upcoming	POINT (-122.3888568 37.769320491)	-122.38885679977793	37.76932049118145	Mission Bay	6	2025/03/10 10:44:55 AM	2025/03/10 11:04:05 AM
0624/008	1900 GOUGH ST	1900 GOUGH ST	94109	67482	Mixed Residential	https://sfplanninggis.org/PIM/?tab=Property&search=0624/008	1937			POINT (-122.425599569 37.791173038)	-122.42559956885002	37.79117303838427	Pacific Heights	2	2025/03/10 10:44:55 AM	2025/03/10 11:04:05 AM
0503/031	2701 VAN NESS AVE	2701 VAN NESS AVE	94123	99336	Mixed Residential	https://sfplanninggis.org/PIM/?tab=Property&search=0503/031	1929			POINT (-122.424848837 37.800573322)	-122.42484883692559	37.800573321732315	Marina	2	2025/03/10 10:44:55 AM	2025/03/10 11:04:05 AM
0264/004	One California Street	1 CALIFORNIA ST	94111	607757	Commercial	https://sfplanninggis.org/PIM/?tab=Property&search=0264/004	1969	04/01/2024	Did Not Comply	POINT (-122.397043036 37.793213746)	-122.39704303604941	37.79321374586126	Financial District/South Beach	3	2025/03/10 10:44:55 AM	2025/03/10 11:04:05 AM
3710/019	45 Fremont	45 FREMONT ST	94105	691436	Commercial	https://sfplanninggis.org/PIM/?tab=Property&search=3710/019	1978	04/01/2026	Upcoming	POINT (-122.397133398 37.791242409)	-122.39713339775173	37.79124240905095	Financial District/South Beach	6	2025/03/10 10:44:55 AM	2025/03/10 11:04:05 AM
0490/019	2159 Chestnut St	2159 Chestnut St	94123	14917	Commercial	https://sfplanninggis.org/PIM/?tab=Property&search=0490/019	1914	04/01/2022	Did Not Comply	POINT (-122.438769962 37.800209461)	-122.43876996175003	37.80020946062445	Marina	2	2025/03/10 10:44:55 AM	2025/03/10 11:04:05 AM
0330/026	PARC 55 WYNDHAM San Francisco- Union Square	55 CYRIL MAGNIN ST	94102	754081	Commercial	https://sfplanninggis.org/PIM/?tab=Property&search=0330/026	1983	04/01/2024	Pending - Contracted	POINT (-122.408964784 37.784878243)	-122.40896478425422	37.78487824326036	Tenderloin	3	2025/03/10 10:44:55 AM	2025/03/10 11:04:05 AM
0266/006	22 Battery	22 BATTERY ST	94111	73640	Commercial	https://sfplanninggis.org/PIM/?tab=Property&search=0266/006	1908	04/01/2029	Upcoming	POINT (-122.399363407 37.791575752)	-122.39936340680836	37.791575751708926	Financial District/South Beach	3	2025/03/10 10:44:55 AM	2025/03/10 11:04:05 AM
7520/015	5285 DIAMOND HEIGHTS BLVD	5285 DIAMOND HEIGHTS BLVD	94131	159722	Mixed Residential	https://sfplanninggis.org/PIM/?tab=Property&search=7520/015	1972			POINT (-122.437844865 37.744194708)	-122.43784486495426	37.74419470804418	Noe Valley	8	2025/03/10 10:44:55 AM	2025/03/10 11:04:05 AM
3704/070	969 MARKET ST	969 MARKET ST	94103	27037	Commercial	https://sfplanninggis.org/PIM/?tab=Property&search=3704/070	1909	04/01/2029	Upcoming	POINT (-122.409229494 37.782519575)	-122.40922949351321	37.7825195749247	South of Market	6	2025/03/10 10:44:55 AM	2025/03/10 11:04:05 AM
4044/031	638 19TH ST	638 19TH ST	94107	61448	Mixed Residential	https://sfplanninggis.org/PIM/?tab=Property&search=4044/031	2007			POINT (-122.389010963 37.762084377)	-122.38901096349748	37.76208437684707	Potrero Hill	10	2025/03/10 10:44:55 AM	2025/03/10 11:04:05 AM
3526/016	290 DIVISION ST	290 DIVISION ST	94103	35628	Commercial	https://sfplanninggis.org/PIM/?tab=Property&search=3526/016	1924	04/01/2025	Upcoming	POINT (-122.408255495 37.769511801)	-122.40825549526772	37.76951180119818	South of Market	6	2025/03/10 10:44:55 AM	2025/03/10 11:04:05 AM
0345/017	361 Turk St	361 Turk St	94102	65741	Multifamily	https://sfplanninggis.org/PIM/?tab=Property&search=0345/017	2022			POINT (-122.414905129 37.782375678)	-122.41490512928026	37.782375677604556	Tenderloin	5	2025/03/10 10:44:55 AM	2025/03/10 11:04:05 AM
0293/004	100 Post	100 POST ST	94108	43927	Commercial	https://sfplanninggis.org/PIM/?tab=Property&search=0293/004	1909	04/01/2019	Did Not Comply	POINT (-122.404003793 37.789048246)	-122.40400379298538	37.78904824583111	Financial District/South Beach	3	2025/03/10 10:44:55 AM	2025/03/10 11:04:05 AM
0344/004	St Anthony Foundation	150 GOLDEN GATE AVE	94102	47169	Commercial	https://sfplanninggis.org/PIM/?tab=Property&search=0344/004	1912	04/01/2024	Did Not Comply	POINT (-122.413219149 37.782233645)	-122.41321914908745	37.78223364476274	Tenderloin	5	2025/03/10 10:44:55 AM	2025/03/10 11:04:05 AM
0165/008	832 SANSOME ST	832 SANSOME ST	94111	14154	Commercial	https://sfplanninggis.org/PIM/?tab=Property&search=0165/008	1912	04/01/2024	Did Not Comply	POINT (-122.40188916 37.798022803)	-122.40188915967248	37.79802280266028	Financial District/South Beach	3	2025/03/10 10:44:55 AM	2025/03/10 11:04:05 AM
3784/008	550 TOWNSEND ST	550 TOWNSEND ST	94103	61312	Commercial	https://sfplanninggis.org/PIM/?tab=Property&search=3784/008	1979	04/01/2013	Did Not Comply	POINT (-122.4009884 37.773045785)	-122.40098840046812	37.77304578510303	South of Market	6	2025/03/10 10:44:55 AM	2025/03/10 11:04:05 AM
0057/001	1700 Montgomery	1700 MONTGOMERY ST	94111	142446	Commercial	https://sfplanninggis.org/PIM/?tab=Property&search=0057/001	1976	04/01/2026	Upcoming	POINT (-122.404583405 37.805272232)	-122.40458340536897	37.805272231841684	North Beach	3	2025/03/10 10:44:55 AM	2025/03/10 11:04:05 AM
0534/002	3053 FILLMORE ST	3053 FILLMORE ST	94123	116000	Mixed Residential	https://sfplanninggis.org/PIM/?tab=Property&search=0534/002	1900			POINT (-122.435921411 37.797761082)	-122.43592141100035	37.79776108180567	Marina	2	2025/03/10 10:44:55 AM	2025/03/10 11:04:05 AM
3722/003	140 2ND ST	132 2ND ST	94105	38000	Commercial	https://sfplanninggis.org/PIM/?tab=Property&search=3722/003	1907	04/01/2029	Upcoming	POINT (-122.399366863 37.787297046)	-122.39936686321735	37.78729704646533	Financial District/South Beach	6	2025/03/10 10:44:55 AM	2025/03/10 11:04:05 AM
0346/006	378 GOLDEN GATE AVE	378 GOLDEN GATE AVE	94102	74390	Mixed Residential	https://sfplanninggis.org/PIM/?tab=Property&search=0346/006	1911			POINT (-122.416850735 37.781768141)	-122.416850734518	37.78176814145742	Tenderloin	5	2025/03/10 10:44:55 AM	2025/03/10 11:04:05 AM
3702/820	1155 Market (Old SFPUC HQ)	1155 Market St	94103	158998	Commercial	https://sfplanninggis.org/PIM/?tab=Property&search=3702/820		04/01/2027	Upcoming	POINT (-122.413409061 37.779222773)	-122.41340906112961	37.779222773137086	South of Market	6	2025/03/10 10:44:55 AM	2025/03/10 11:04:05 AM
3642/032	2701 MISSION ST	2701 MISSION ST	94110	11298	Commercial	https://sfplanninggis.org/PIM/?tab=Property&search=3642/032	1947	04/01/2022	Did Not Comply	POINT (-122.418123276 37.753649408)	-122.41812327596665	37.75364940791764	Mission	9	2025/03/10 10:44:55 AM	2025/03/10 11:04:05 AM
1539/003	4141 GEARY BLVD	4141 GEARY BLVD	94118	305726	Multifamily	https://sfplanninggis.org/PIM/?tab=Property&search=1539/003	1969			POINT (-122.463706693 37.780434896)	-122.46370669308939	37.78043489640313	Inner Richmond	1	2025/03/10 10:44:55 AM	2025/03/10 11:04:05 AM
3777/055	E.M. Hundley Hardware	617 BRYANT ST	94107	36000	Commercial	https://sfplanninggis.org/PIM/?tab=Property&search=3777/055	1986	04/01/2026	Upcoming	POINT (-122.39830388 37.779051125)	-122.39830388020131	37.77905112547714	South of Market	6	2025/03/10 10:44:55 AM	2025/03/10 11:04:05 AM
0056/002-A	LPF 140 Chestnut	140 CHESTNUT ST	94133	36642	Commercial	https://sfplanninggis.org/PIM/?tab=Property&search=0056/002-A	1906	04/01/2019	Did Not Comply	POINT (-122.405810164 37.804968342)	-122.40581016380008	37.80496834167792	North Beach	3	2025/03/10 10:44:55 AM	2025/03/10 11:04:05 AM
0349/014	Dorothy Day Community	54 MCALLISTER ST	94102	77963	Multifamily	https://sfplanninggis.org/PIM/?tab=Property&search=0349/014	1986			POINT (-122.413173134 37.781289431)	-122.41317313434533	37.781289430506554	Tenderloin	5	2025/03/10 10:44:55 AM	2025/03/10 11:04:05 AM
0320/011	750 OFARRELL ST	750 OFARRELL ST	94109	56068	Mixed Residential	https://sfplanninggis.org/PIM/?tab=Property&search=0320/011	1913			POINT (-122.417252557 37.785539678)	-122.41725255713654	37.78553967794366	Tenderloin	5	2025/03/10 10:44:55 AM	2025/03/10 11:04:05 AM
0280/009	940 SUTTER ST	940 SUTTER ST	94109	57634	Commercial	https://sfplanninggis.org/PIM/?tab=Property&search=0280/009	1925	04/01/2029	Upcoming	POINT (-122.41592833 37.78857633)	-122.41592832995336	37.78857633020745	Nob Hill	3	2025/03/10 10:44:55 AM	2025/03/10 11:04:05 AM
0184/036	1333 PACIFIC AVE	1333 PACIFIC AVE	94109	94078	Mixed Residential	https://sfplanninggis.org/PIM/?tab=Property&search=0184/036	1975			POINT (-122.417170153 37.795275939)	-122.41717015332085	37.79527593938482	Russian Hill	3	2025/03/10 10:44:55 AM	2025/03/10 11:04:05 AM
4022/029	The Madelon (md155)	2823 18th St	94110	212254	Multifamily	https://sfplanninggis.org/PIM/?tab=Property&search=4022/029				POINT (-122.410564445 37.761324312)	-122.4105644452359	37.76132431234857	Mission	9	2025/03/10 10:44:55 AM	2025/03/10 11:04:05 AM
4107/001B	950 TENNESSEE ST	950 TENNESSEE ST	94107	38500	Commercial	https://sfplanninggis.org/PIM/?tab=Property&search=4107/001B	1947	04/01/2024	Did Not Comply	POINT (-122.389882115 37.759747691)	-122.38988211504505	37.75974769091576	Potrero Hill	10	2025/03/10 10:44:55 AM	2025/03/10 11:04:05 AM
3778/068	767 BRYANT ST	767 BRYANT ST	94107	55316	Mixed Residential	https://sfplanninggis.org/PIM/?tab=Property&search=3778/068	2002			POINT (-122.401564037 37.77635833)	-122.40156403678473	37.77635833019067	South of Market	6	2025/03/10 10:44:55 AM	2025/03/10 11:04:05 AM
0163/005	Westlake MOB	909 MONTGOMERY ST	94133	104311	Commercial	https://sfplanninggis.org/PIM/?tab=Property&search=0163/005	1983	04/01/2024	Pending - Contracted	POINT (-122.404069626 37.797509455)	-122.40406962599603	37.79750945531926	North Beach	3	2025/03/10 10:44:55 AM	2025/03/10 11:04:05 AM
3728/002	120 8TH ST	120 8TH ST	94103	12250	Commercial	https://sfplanninggis.org/PIM/?tab=Property&search=3728/002	1925	04/01/2026	Upcoming	POINT (-122.412960168 37.776978372)	-122.41296016756269	37.776978372145656	South of Market	6	2025/03/10 10:44:55 AM	2025/03/10 11:04:05 AM
0287/017	Bush Grant Building	342 GRANT AVE	94108	67460	Commercial	https://sfplanninggis.org/PIM/?tab=Property&search=0287/017	1912	04/01/2020	Pending - Contracted	POINT (-122.40530161 37.790333724)	-122.40530161037199	37.79033372376131	Financial District/South Beach	3	2025/03/10 10:44:55 AM	2025/03/10 11:04:05 AM
3788/042	333 BRANNAN ST	333 BRANNAN ST	94107	221426	Commercial	https://sfplanninggis.org/PIM/?tab=Property&search=3788/042	1972	04/01/2026	Upcoming	POINT (-122.392416985 37.780918014)	-122.39241698499072	37.78091801396753	Financial District/South Beach	6	2025/03/10 10:44:55 AM	2025/03/10 11:04:05 AM
3905/003	Byer California - 2460 Alameda St.	2460 ALAMEDA ST	94103	35134	Commercial	https://sfplanninggis.org/PIM/?tab=Property&search=3905/003	2009	04/01/2027	Upcoming	POINT (-122.409613965 37.768556854)	-122.4096139648741	37.76855685375263	Mission	9	2025/03/10 10:44:55 AM	2025/03/10 11:04:05 AM
3783/008	600 Townsend	600 TOWNSEND ST	94103	208259	Commercial	https://sfplanninggis.org/PIM/?tab=Property&search=3783/008	1989	04/01/2025	Pending - Contracted	POINT (-122.402682882 37.771705892)	-122.40268288174153	37.771705892270724	South of Market	6	2025/03/10 10:44:55 AM	2025/03/10 11:04:05 AM
2808/025	925 CORBETT AVE	925 CORBETT AVE	94131	63773	Mixed Residential	https://sfplanninggis.org/PIM/?tab=Property&search=2808/025	1978			POINT (-122.443227532 37.751998133)	-122.4432275316819	37.7519981331468	Twin Peaks	8	2025/03/10 10:44:55 AM	2025/03/10 11:04:05 AM
6472/002	San Francisco Christian Center	5825 MISSION ST	94112	36672	Commercial	https://sfplanninggis.org/PIM/?tab=Property&search=6472/002	1989	04/01/2018	Did Not Comply	POINT (-122.450992462 37.708934092)	-122.45099246180173	37.70893409218968	Excelsior	11	2025/03/10 10:44:55 AM	2025/03/10 11:04:05 AM
3766/012	400 BEALE ST	400 BEALE ST	94105	346653	Mixed Residential	https://sfplanninggis.org/PIM/?tab=Property&search=3766/012	2002			POINT (-122.390920263 37.786904933)	-122.39092026271788	37.7869049333036	Financial District/South Beach	6	2025/03/10 10:44:55 AM	2025/03/10 11:04:05 AM
0051/117	690 CHESTNUT ST	690 CHESTNUT ST	94133	59325	Mixed Residential	https://sfplanninggis.org/PIM/?tab=Property&search=0051/117	1997			POINT (-122.414563051 37.80383874)	-122.41456305078974	37.80383873951843	North Beach	3	2025/03/10 10:44:55 AM	2025/03/10 11:04:05 AM
3518/045	Folsom + Dore Apartments	75 DORE ST	94103	82173	Mixed Residential	https://sfplanninggis.org/PIM/?tab=Property&search=3518/045	2005			POINT (-122.412482327 37.773749283)	-122.41248232681394	37.773749282628245	South of Market	6	2025/03/10 10:44:55 AM	2025/03/10 11:04:05 AM
3547/054	1600 15TH ST	1600 15TH ST	94103	261974	Multifamily	https://sfplanninggis.org/PIM/?tab=Property&search=3547/054	2013			POINT (-122.42049646 37.766972298)	-122.42049645975737	37.76697229848201	Mission	9	2025/03/10 10:44:55 AM	2025/03/10 11:04:05 AM
7521/002-A	Diamond Heights Shopping Center - Building B2	5268 DIAMOND HEIGHTS BLVD	94131	10728	Commercial	https://sfplanninggis.org/PIM/?tab=Property&search=7521/002-A	1964	04/01/2020	Did Not Comply	POINT (-122.439174568 37.743743733)	-122.43917456770004	37.743743732856174	Glen Park	8	2025/03/10 10:44:55 AM	2025/03/10 11:04:05 AM
3968/001	440 ALABAMA ST	440 ALABAMA ST	94110	51270	Commercial	https://sfplanninggis.org/PIM/?tab=Property&search=3968/001	1946	04/01/2021	Did Not Comply	POINT (-122.412610953 37.763806668)	-122.41261095306838	37.76380666791044	Mission	9	2025/03/10 10:44:55 AM	2025/03/10 11:04:05 AM
0288/031	101 Montgomery Street Building	101 MONTGOMERY ST	94104	332000	Commercial	https://sfplanninggis.org/PIM/?tab=Property&search=0288/031	1984	04/01/2027	Upcoming	POINT (-122.402484989 37.790427311)	-122.40248498916095	37.790427310503034	Financial District/South Beach	3	2025/03/10 10:44:55 AM	2025/03/10 11:04:05 AM
8715/008	LUMA Hotel - San Francisco	100 Channel Street	94158	216500	Commercial	https://sfplanninggis.org/PIM/?tab=Property&search=8715/008	2023	04/01/2027	Upcoming	POINT (-122.39029199 37.77483679)	-122.3902919903187	37.77483678972047	Mission Bay	6	2025/03/10 10:44:55 AM	2025/03/10 11:04:05 AM
4045/041	2121 03RD ST	2121 3RD ST	94107	90522	Multifamily	https://sfplanninggis.org/PIM/?tab=Property&search=4045/041				POINT (-122.388218806 37.762686118)	-122.38821880604813	37.76268611798989	Potrero Hill	10	2025/03/10 10:44:55 AM	2025/03/10 11:04:05 AM
3707/052	The Palace Hotel	2 NEW MONTGOMERY ST	94105	608000	Commercial	https://sfplanninggis.org/PIM/?tab=Property&search=3707/052	1909	04/01/2026	Upcoming	POINT (-122.401934536 37.787940788)	-122.40193453576686	37.787940788265466	Financial District/South Beach	6	2025/03/10 10:44:55 AM	2025/03/10 11:04:05 AM
3800/006	888 07TH ST	888 7TH ST	94107	434174	Mixed Residential	https://sfplanninggis.org/PIM/?tab=Property&search=3800/006	2007			POINT (-122.40106233 37.770379537)	-122.40106232976171	37.77037953672754	Mission Bay	6	2025/03/10 10:44:55 AM	2025/03/10 11:04:05 AM
3785/023	460 Townsend Street, LLC	460 TOWNSEND ST	94107	25920	Commercial	https://sfplanninggis.org/PIM/?tab=Property&search=3785/023	1915	04/01/2024	Pending - Contracted	POINT (-122.398812344 37.774468247)	-122.39881234435512	37.77446824713659	Mission Bay	6	2025/03/10 10:44:55 AM	2025/03/10 11:04:05 AM
8705/011-B	CA800_Building 0T2	301 KING ST	94107	189459	Mixed Residential	https://sfplanninggis.org/PIM/?tab=Property&search=8705/011-B				POINT (-122.394228317 37.775518813)	-122.39422831687098	37.77551881269145	Mission Bay	6	2025/03/10 10:44:55 AM	2025/03/10 11:04:05 AM
4624/438	Hunters View Phase II B (Block 10)	901 Fairfax Ave	94124	57954	Multifamily	https://sfplanninggis.org/PIM/?tab=Property&search=4624/438				POINT (-122.380759442 37.735225602)	-122.38075944184718	37.73522560222306	Bayview Hunters Point	10	2025/03/10 10:44:55 AM	2025/03/10 11:04:05 AM
0255/002	Mark Hopkins 2	999 California St	94108	360588	Commercial	https://sfplanninggis.org/PIM/?tab=Property&search=0255/002	1926	04/01/2026	Upcoming	POINT (-122.410248218 37.791404954)	-122.4102482176366	37.791404953704046	Nob Hill	3	2025/03/10 10:44:55 AM	2025/03/10 11:04:05 AM
0051/037	600 CHESTNUT ST	600 CHESTNUT ST	94133	68062	Mixed Residential	https://sfplanninggis.org/PIM/?tab=Property&search=0051/037	1995			POINT (-122.413645917 37.803993858)	-122.41364591731325	37.803993858236325	North Beach	3	2025/03/10 10:44:55 AM	2025/03/10 11:04:05 AM
0018/004	2300 Stockton Street, LLC	2340 STOCKTON ST	94133	64530	Commercial	https://sfplanninggis.org/PIM/?tab=Property&search=0018/004	1970	04/01/2030	Upcoming	POINT (-122.410240253 37.807471174)	-122.4102402534412	37.80747117375564	North Beach	3	2025/03/10 10:44:55 AM	2025/03/10 11:04:05 AM
0644/014	JPMorgan Chase - WM1405 Polk	1500 POLK ST	94109	11935	Commercial	https://sfplanninggis.org/PIM/?tab=Property&search=0644/014	1970	04/01/2024	Did Not Comply	POINT (-122.420439346 37.790828109)	-122.42043934550671	37.79082810858958	Nob Hill	3	2025/03/10 10:44:55 AM	2025/03/10 11:04:05 AM
3740/033	SF - 211 Main St.	211 MAIN ST	94105	450536	Commercial	https://sfplanninggis.org/PIM/?tab=Property&search=3740/033	1973	04/01/2025	Upcoming	POINT (-122.392699067 37.790594319)	-122.39269906681578	37.790594319434646	Financial District/South Beach	6	2025/03/10 10:44:55 AM	2025/03/10 11:04:05 AM
3958/001G	OPSWAT_BASE	398 KANSAS ST	94103	12000	Commercial	https://sfplanninggis.org/PIM/?tab=Property&search=3958/001G	1912	04/01/2025	Upcoming	POINT (-122.403866712 37.764911825)	-122.40386671186255	37.764911824561395	Mission Bay	10	2025/03/10 10:44:55 AM	2025/03/10 11:04:05 AM
3180/006	CA090_Ocean Ave Building 351	1150 OCEAN AVE	94112	105728	Mixed Residential	https://sfplanninggis.org/PIM/?tab=Property&search=3180/006	2012			POINT (-122.455047245 37.723981848)	-122.45504724469005	37.72398184847414	West of Twin Peaks	7	2025/03/10 10:44:55 AM	2025/03/10 11:04:05 AM
3774/026	270 Brannan Street	270 Brannan Street	94107	182927	Commercial	https://sfplanninggis.org/PIM/?tab=Property&search=3774/026	2017	04/01/2021	Did Not Comply	POINT (-122.391554777 37.782960289)	-122.39155477686535	37.78296028924324	Financial District/South Beach	6	2025/03/10 10:44:55 AM	2025/03/10 11:04:05 AM
3706/127	Residences at the Four Seasons	765 MARKET ST	94103	959355	Mixed Residential	https://sfplanninggis.org/PIM/?tab=Property&search=3706/127	2001			POINT (-122.40430333 37.786211978)	-122.4043033295712	37.786211978140244	Financial District/South Beach	6	2025/03/10 10:44:55 AM	2025/03/10 11:04:05 AM
0929/014	2340 Chestnut Street	2340 CHESTNUT ST	94123	12628	Commercial	https://sfplanninggis.org/PIM/?tab=Property&search=0929/014	1937	04/01/2025	Upcoming	POINT (-122.441967543 37.800376604)	-122.4419675432047	37.80037660447277	Marina	2	2025/03/10 10:44:55 AM	2025/03/10 11:04:05 AM
1190/001	2195 FULTON ST	2195 FULTON ST	94117	67014	Commercial	https://sfplanninggis.org/PIM/?tab=Property&search=1190/001	2000	04/01/2020	Did Not Comply	POINT (-122.452117474 37.774773179)	-122.4521174739381	37.7747731793832	Lone Mountain/USF	1	2025/03/10 10:44:55 AM	2025/03/10 11:04:05 AM
0295/013	Williams Sonoma - 431 Sutter	431 SUTTER ST	94108	15453	Commercial	https://sfplanninggis.org/PIM/?tab=Property&search=0295/013	1909	04/01/2019	Did Not Comply	POINT (-122.407510392 37.789092357)	-122.40751039186267	37.789092356554406	Financial District/South Beach	3	2025/03/10 10:44:55 AM	2025/03/10 11:04:05 AM
0037/001	50 Francisco	50 FRANCISCO ST	94133	130469	Commercial	https://sfplanninggis.org/PIM/?tab=Property&search=0037/001	1976	04/01/2026	Upcoming	POINT (-122.40592454 37.806091095)	-122.40592454022763	37.80609109541972	North Beach	3	2025/03/10 10:44:55 AM	2025/03/10 11:04:05 AM
0013/005	2720 TAYLOR ST	2720 TAYLOR ST	94133	92931	Commercial	https://sfplanninggis.org/PIM/?tab=Property&search=0013/005	1974	04/01/2030	Upcoming	POINT (-122.415320782 37.80759926)	-122.41532078247603	37.80759926010946	North Beach	3	2025/03/10 10:44:55 AM	2025/03/10 11:04:05 AM
3970/008	1800 BRYANT ST	1800 BRYANT ST	94110	72435	Mixed Residential	https://sfplanninggis.org/PIM/?tab=Property&search=3970/008	2000			POINT (-122.41082772 37.764087747)	-122.41082771963669	37.76408774659409	Mission	9	2025/03/10 10:44:55 AM	2025/03/10 11:04:05 AM
5226/012	1680 EVANS AVE	1680 EVANS AVE	94124	29999	Commercial	https://sfplanninggis.org/PIM/?tab=Property&search=5226/012	1948	04/01/2020	Did Not Comply	POINT (-122.389740414 37.744185826)	-122.38974041435982	37.74418582569652	Bayview Hunters Point	10	2025/03/10 10:44:55 AM	2025/03/10 11:04:05 AM
3547/002	1850 MISSION ST	1850 MISSION ST	94103	18747	Commercial	https://sfplanninggis.org/PIM/?tab=Property&search=3547/002	1946	04/01/2021	Did Not Comply	POINT (-122.42047664 37.767347684)	-122.42047663978711	37.76734768435296	Mission	9	2025/03/10 10:44:55 AM	2025/03/10 11:04:05 AM
8706/011	CA067_Building P	255 King St	94107	112032	Multifamily	https://sfplanninggis.org/PIM/?tab=Property&search=8706/011	2003			POINT (-122.393023904 37.776465618)	-122.39302390381343	37.77646561786644	Mission Bay	6	2025/03/10 10:44:55 AM	2025/03/10 11:04:05 AM
0238/001	275 Battery Street	275 BATTERY ST	94104	588929	Commercial	https://sfplanninggis.org/PIM/?tab=Property&search=0238/001	1989	04/01/2026	Upcoming	POINT (-122.400373736 37.79386287)	-122.40037373607439	37.79386287004268	Financial District/South Beach	3	2025/03/10 10:44:55 AM	2025/03/10 11:04:05 AM
3785/024	157 BLUXOME ST	157 BLUXOME ST	94107	16275	Commercial	https://sfplanninggis.org/PIM/?tab=Property&search=3785/024	1916	04/01/2020	Exempt - Other	POINT (-122.399116138 37.774711939)	-122.39911613840806	37.77471193854249	Mission Bay	6	2025/03/10 10:44:55 AM	2025/03/10 11:04:05 AM
3722/081	W Hotel - San Francisco	181 3RD ST	94105	292167	Commercial	https://sfplanninggis.org/PIM/?tab=Property&search=3722/081	1999	04/01/2024	Did Not Comply	POINT (-122.400453774 37.785466295)	-122.40045377421389	37.78546629504633	Financial District/South Beach	6	2025/03/10 10:44:55 AM	2025/03/10 11:04:05 AM
9900/026	Pier 26	26 PIER	94105	123133	Commercial - Port Facility	https://sfplanninggis.org/PIM/?tab=Property&search=9900/026	1900			POINT (-122.386495495 37.789223634)	-122.38649549528809	37.789223633504164	Financial District/South Beach	6	2025/03/10 10:44:55 AM	2025/03/10 11:04:05 AM
2139/026	2043 19TH AVE	2043 19TH AVE	94116	55814	Commercial	https://sfplanninggis.org/PIM/?tab=Property&search=2139/026	1968	04/01/2029	Upcoming	POINT (-122.476482232 37.749631782)	-122.47648223205131	37.74963178196309	Sunset/Parkside	4	2025/03/10 10:44:55 AM	2025/03/10 11:04:05 AM
2623/168	4150 17TH ST	4150 17TH ST	94114	75576	Mixed Residential	https://sfplanninggis.org/PIM/?tab=Property&search=2623/168	1994			POINT (-122.438531612 37.7627852)	-122.43853161245154	37.762785199572924	Castro/Upper Market	8	2025/03/10 10:44:55 AM	2025/03/10 11:04:05 AM
0240/020	190480 550 California Street	550 CALIFORNIA ST	94104	474118	Commercial	https://sfplanninggis.org/PIM/?tab=Property&search=0240/020	1960	04/01/2024	Did Not Comply	POINT (-122.403667349 37.793234196)	-122.40366734877844	37.79323419601495	Financial District/South Beach	3	2025/03/10 10:44:55 AM	2025/03/10 11:04:05 AM
0107/007	Levi - 1155 Battery Street	1155 BATTERY ST	94111	420700	Commercial	https://sfplanninggis.org/PIM/?tab=Property&search=0107/007	1982	04/01/2026	Upcoming	POINT (-122.402308962 37.801791456)	-122.40230896167105	37.80179145618413	Financial District/South Beach	3	2025/03/10 10:44:55 AM	2025/03/10 11:04:05 AM
7380/039	AlmaVia of San Francisco	1 Thomas More Way	94132	100000	Multifamily	https://sfplanninggis.org/PIM/?tab=Property&search=7380/039				POINT (-122.472152575 37.712121495)	-122.47215257497594	37.71212149450668	Lakeshore	7	2025/03/10 10:44:55 AM	2025/03/10 11:04:05 AM
0774/020	EL BETHEL TERRACE	1055 FILLMORE ST	94117	87470	Mixed Residential	https://sfplanninggis.org/PIM/?tab=Property&search=0774/020	1984			POINT (-122.432294517 37.779233624)	-122.43229451684994	37.77923362383807	Western Addition	5	2025/03/10 10:44:55 AM	2025/03/10 11:04:05 AM
3702/048	1117-1119 Market Street	1115 MARKET ST	94103	21500	Commercial	https://sfplanninggis.org/PIM/?tab=Property&search=3702/048	1920	04/01/2030	Upcoming	POINT (-122.412598356 37.779865484)	-122.41259835553858	37.779865483722965	South of Market	6	2025/03/10 10:44:55 AM	2025/03/10 11:04:05 AM
3733/106	366 CLEMENTINA ST	366 CLEMENTINA ST	94103	10673	Commercial	https://sfplanninggis.org/PIM/?tab=Property&search=3733/106	1949	04/01/2014	Did Not Comply	POINT (-122.403208318 37.781475842)	-122.4032083183047	37.78147584236651	South of Market	6	2025/03/10 10:44:55 AM	2025/03/10 11:04:05 AM
0285/004	417 STOCKTON ST	417 STOCKTON ST	94108	37432	Commercial	https://sfplanninggis.org/PIM/?tab=Property&search=0285/004	1907	04/01/2014	Did Not Comply	POINT (-122.407389889 37.78980097)	-122.40738988945944	37.7898009704239	Financial District/South Beach	3	2025/03/10 10:44:55 AM	2025/03/10 11:04:05 AM
0136/006	Feather Factory	950 BATTERY ST	94111	29690	Commercial	https://sfplanninggis.org/PIM/?tab=Property&search=0136/006	1932	04/01/2029	Upcoming	POINT (-122.401021853 37.800228641)	-122.40102185339568	37.80022864061118	Financial District/South Beach	3	2025/03/10 10:44:55 AM	2025/03/10 11:04:05 AM
0115/019	1400 GRANT AVE	1400 GRANT AVE	94133	78964	Mixed Residential	https://sfplanninggis.org/PIM/?tab=Property&search=0115/019	1907			POINT (-122.407143153 37.800022442)	-122.40714315325145	37.80002244165365	North Beach	3	2025/03/10 10:44:55 AM	2025/03/10 11:04:05 AM
0690/012	1337 SUTTER ST	1337 SUTTER ST	94109	13277	Commercial	https://sfplanninggis.org/PIM/?tab=Property&search=0690/012	1910	04/01/2013	Did Not Comply	POINT (-122.42244291 37.787195428)	-122.42244291041322	37.78719542770665	Western Addition	2	2025/03/10 10:44:55 AM	2025/03/10 11:04:05 AM
3593/038	630 TREAT AVE	630 TREAT AVE	94110	10500	Commercial	https://sfplanninggis.org/PIM/?tab=Property&search=3593/038	1920	04/01/2014	Did Not Comply	POINT (-122.414049682 37.759951442)	-122.41404968226325	37.75995144198418	Mission	9	2025/03/10 10:44:55 AM	2025/03/10 11:04:05 AM
0452/002	900 North Point St.	900 NORTH POINT ST.	94109	204867	Commercial	https://sfplanninggis.org/PIM/?tab=Property&search=0452/002	0	04/01/2030	Upcoming	POINT (-122.422925182 37.805857926)	-122.42292518226363	37.80585792554295	Russian Hill	2	2025/03/10 10:44:55 AM	2025/03/10 11:04:05 AM
8711/028	1201 04TH ST	1201 4TH ST	94158	250193	Mixed Residential	https://sfplanninggis.org/PIM/?tab=Property&search=8711/028	2009			POINT (-122.390795493 37.772392428)	-122.39079549283713	37.77239242751408	Mission Bay	6	2025/03/10 10:44:55 AM	2025/03/10 11:04:05 AM
0743/204	815 EDDY ST	815 EDDY ST	94102	24930	Commercial	https://sfplanninggis.org/PIM/?tab=Property&search=0743/204	1986	04/01/2026	Upcoming	POINT (-122.421504882 37.782544921)	-122.42150488158117	37.78254492077781	Western Addition	2	2025/03/10 10:44:55 AM	2025/03/10 11:04:05 AM
0493/007	1940 LOMBARD ST	1940 LOMBARD ST	94123	16700	Commercial	https://sfplanninggis.org/PIM/?tab=Property&search=0493/007	1980	04/01/2029	Upcoming	POINT (-122.433502226 37.800475456)	-122.43350222551398	37.80047545631739	Marina	2	2025/03/10 10:44:55 AM	2025/03/10 11:04:05 AM
0285/005	400 Sutter	400 SUTTER ST	94108	22830	Commercial	https://sfplanninggis.org/PIM/?tab=Property&search=0285/005	1907	04/01/2030	Upcoming	POINT (-122.407223552 37.789631861)	-122.40722355192001	37.78963186079421	Financial District/South Beach	3	2025/03/10 10:44:55 AM	2025/03/10 11:04:05 AM
0260/006	332 PINE ST	332 PINE ST	94104	47733	Commercial	https://sfplanninggis.org/PIM/?tab=Property&search=0260/006	1912	04/01/2030	Upcoming	POINT (-122.401497176 37.792323817)	-122.40149717590674	37.79232381747686	Financial District/South Beach	3	2025/03/10 10:44:55 AM	2025/03/10 11:04:05 AM
7336/001	531 ARBALLO DR	531 ARBALLO DR	94132	128033	Mixed Residential	https://sfplanninggis.org/PIM/?tab=Property&search=7336/001	1942			POINT (-122.482409453 37.716875943)	-122.48240945288109	37.716875943427205	Lakeshore	7	2025/03/10 10:44:55 AM	2025/03/10 11:04:05 AM
3707/064	74 NEW MONTGOMERY ST	74 NEW MONTGOMERY ST	94105	97376	Mixed Residential	https://sfplanninggis.org/PIM/?tab=Property&search=3707/064	1907			POINT (-122.401309899 37.787457863)	-122.40130989854975	37.78745786259691	Financial District/South Beach	6	2025/03/10 10:44:55 AM	2025/03/10 11:04:05 AM
3789/518	219 BRANNAN ST	219 BRANNAN ST	94107	744020	Mixed Residential	https://sfplanninggis.org/PIM/?tab=Property&search=3789/518	2000			POINT (-122.390388145 37.782646299)	-122.390388145052	37.78264629895649	Financial District/South Beach	6	2025/03/10 10:44:55 AM	2025/03/10 11:04:05 AM
5216/028	CitiScape - 1501-1599 Custer Avenue	1501 CUSTER AVE	94124	92530	Commercial	https://sfplanninggis.org/PIM/?tab=Property&search=5216/028	1964	04/01/2020	Did Not Comply	POINT (-122.391071409 37.745896651)	-122.3910714090067	37.74589665052322	Bayview Hunters Point	10	2025/03/10 10:44:55 AM	2025/03/10 11:04:05 AM
0314/018	71428A (UNION SQUARE MAIN)	170 O'FARRELL ST	94102	922758	Commercial	https://sfplanninggis.org/PIM/?tab=Property&search=0314/018	1946	04/01/2027	Upcoming	POINT (-122.407174876 37.786997358)	-122.40717487646648	37.786997358259796	Financial District/South Beach	3	2025/03/10 10:44:55 AM	2025/03/10 11:04:05 AM
0717/015	Great American Music Hall	859 OFARRELL ST	94109	10300	Commercial	https://sfplanninggis.org/PIM/?tab=Property&search=0717/015	1907	04/01/2030	Upcoming	POINT (-122.418818516 37.784795934)	-122.41881851581294	37.78479593358403	Tenderloin	5	2025/03/10 10:44:55 AM	2025/03/10 11:04:05 AM
0555/032	2030 VALLEJO ST	2030 VALLEJO ST	94123	108950	Mixed Residential	https://sfplanninggis.org/PIM/?tab=Property&search=0555/032	1966			POINT (-122.430876283 37.796050038)	-122.43087628262788	37.79605003847368	Marina	2	2025/03/10 10:44:55 AM	2025/03/10 11:04:05 AM
0306/004	401 MASON ST	401 MASON ST	94102	10580	Commercial	https://sfplanninggis.org/PIM/?tab=Property&search=0306/004	1916	04/01/2022	Pending - Contracted	POINT (-122.410140938 37.787294685)	-122.41014093767475	37.78729468481135	Tenderloin	3	2025/03/10 10:44:55 AM	2025/03/10 11:04:05 AM
0287/018	461-463 Bush Street	461 BUSH ST	94108	18750	Commercial	https://sfplanninggis.org/PIM/?tab=Property&search=0287/018	1907	04/01/2018	Pending - Contracted	POINT (-122.405111331 37.790345502)	-122.40511133070562	37.79034550229426	Financial District/South Beach	3	2025/03/10 10:44:55 AM	2025/03/10 11:04:05 AM
3744/002	75 FOLSOM ST	75 FOLSOM ST	94105	73700	Mixed Residential	https://sfplanninggis.org/PIM/?tab=Property&search=3744/002	1991			POINT (-122.389757394 37.789803299)	-122.38975739444082	37.78980329858977	Financial District/South Beach	6	2025/03/10 10:44:55 AM	2025/03/10 11:04:05 AM
3517/041	250 10TH ST	250 10TH ST	94103	28650	Commercial	https://sfplanninggis.org/PIM/?tab=Property&search=3517/041	2020	04/01/2027	Upcoming	POINT (-122.413887758 37.77310054)	-122.413887758464	37.773100540244315	South of Market	6	2025/03/10 10:44:55 AM	2025/03/10 11:04:05 AM
0301/017	Hotel Carlton	1075 SUTTER ST	94109	74000	Commercial	https://sfplanninggis.org/PIM/?tab=Property&search=0301/017	1924	04/01/2024	Did Not Comply	POINT (-122.417931688 37.787750546)	-122.41793168824296	37.787750546446844	Nob Hill	3	2025/03/10 10:44:55 AM	2025/03/10 11:04:05 AM
5318/046	2065 Oakdale Ave	2065 OAKDALE AVE	94124	55695	Commercial	https://sfplanninggis.org/PIM/?tab=Property&search=5318/046	1964	04/01/2014	Did Not Comply	POINT (-122.399352876 37.739244839)	-122.39935287579777	37.739244839418696	Bayview Hunters Point	10	2025/03/10 10:44:55 AM	2025/03/10 11:04:05 AM
0717/013	Cinema 7 Inc	895 OFARRELL ST	94109	12920	Commercial	https://sfplanninggis.org/PIM/?tab=Property&search=0717/013	1924	04/01/2024	Did Not Comply	POINT (-122.419245604 37.784741551)	-122.41924560438896	37.78474155107043	Tenderloin	5	2025/03/10 10:44:55 AM	2025/03/10 11:04:05 AM
4714/005	1201 INGALLS ST	1201 INGALLS ST	94124	225230	Mixed Residential	https://sfplanninggis.org/PIM/?tab=Property&search=4714/005	1976			POINT (-122.379525765 37.729879708)	-122.37952576536756	37.72987970775063	Bayview Hunters Point	10	2025/03/10 10:44:55 AM	2025/03/10 11:04:05 AM
1449/025	YMCA Richmond	360 18TH AVE	94121	19500	Commercial	https://sfplanninggis.org/PIM/?tab=Property&search=1449/025	1935	04/01/2024	Did Not Comply	POINT (-122.476967797 37.781271398)	-122.4769677965302	37.781271398254084	Outer Richmond	1	2025/03/10 10:44:55 AM	2025/03/10 11:04:05 AM
3754/057	1015 Folsom	1015 FOLSOM ST	94103	16981	Commercial	https://sfplanninggis.org/PIM/?tab=Property&search=3754/057	1932	04/01/2030	Upcoming	POINT (-122.405681238 37.77804833)	-122.40568123770241	37.778048330446616	South of Market	6	2025/03/10 10:44:55 AM	2025/03/10 11:04:05 AM
0267/003	65 Battery Street	65 BATTERY ST	94104	15406	Commercial	https://sfplanninggis.org/PIM/?tab=Property&search=0267/003	1918	04/01/2030	Upcoming	POINT (-122.399963533 37.791816909)	-122.39996353314524	37.79181690901987	Financial District/South Beach	3	2025/03/10 10:44:55 AM	2025/03/10 11:04:05 AM
4570/023	200 JENNINGS ST	200 JENNINGS ST	94124	45705	Commercial	https://sfplanninggis.org/PIM/?tab=Property&search=4570/023	1982	04/01/2022	Did Not Comply	POINT (-122.378662232 37.739010535)	-122.37866223228059	37.73901053511546	Bayview Hunters Point	10	2025/03/10 10:44:55 AM	2025/03/10 11:04:05 AM
0066/001	701 Chestnut Street, LLC	2295 TAYLOR ST	94133	10440	Commercial	https://sfplanninggis.org/PIM/?tab=Property&search=0066/001	1919	04/01/2025	Upcoming	POINT (-122.415048232 37.803236168)	-122.41504823221851	37.80323616762473	Russian Hill	3	2025/03/10 10:44:55 AM	2025/03/10 11:04:05 AM
0052/041	530 CHESTNUT ST	530 CHESTNUT ST	94133	162444	Mixed Residential	https://sfplanninggis.org/PIM/?tab=Property&search=0052/041	2001			POINT (-122.41244765 37.804361894)	-122.4124476496484	37.80436189376491	North Beach	3	2025/03/10 10:44:55 AM	2025/03/10 11:04:05 AM
0266/001	First Republic Bank Building	111 PINE ST	94111	247000	Commercial	https://sfplanninggis.org/PIM/?tab=Property&search=0266/001	1963	04/01/2029	Upcoming	POINT (-122.398896721 37.792143312)	-122.39889672142843	37.792143311649305	Financial District/South Beach	3	2025/03/10 10:44:55 AM	2025/03/10 11:04:05 AM
0260/001	425 California Street	425 CALIFORNIA ST	94104	211344	Commercial	https://sfplanninggis.org/PIM/?tab=Property&search=0260/001	1968	04/01/2027	Upcoming	POINT (-122.401353281 37.792795755)	-122.40135328059215	37.79279575520117	Financial District/South Beach	3	2025/03/10 10:44:55 AM	2025/03/10 11:04:05 AM
6950/004	Daring Faith Celebration Centre	355 OCEAN AVE	94112	26554	Commercial	https://sfplanninggis.org/PIM/?tab=Property&search=6950/004	1968	04/01/2024	Did Not Comply	POINT (-122.444064069 37.722704272)	-122.44406406938859	37.72270427158995	Outer Mission	11	2025/03/10 10:44:55 AM	2025/03/10 11:04:05 AM
3574/048	Seven Tepees Youth Program	3175 17TH ST	94110	14400	Commercial	https://sfplanninggis.org/PIM/?tab=Property&search=3574/048	1926	04/01/2030	Upcoming	POINT (-122.416698673 37.763373591)	-122.41669867343799	37.76337359086727	Mission	9	2025/03/10 10:44:55 AM	2025/03/10 11:04:05 AM
3706/048	785 Market St.	785 MARKET ST	94103	98804	Commercial	https://sfplanninggis.org/PIM/?tab=Property&search=3706/048	1907	04/01/2020	Pending - Contracted	POINT (-122.405080882 37.785791822)	-122.40508088187909	37.785791822189594	Financial District/South Beach	6	2025/03/10 10:44:55 AM	2025/03/10 11:04:05 AM
0193/013	816 WASHINGTON ST	816 WASHINGTON ST	94108	13950	Commercial	https://sfplanninggis.org/PIM/?tab=Property&search=0193/013	1907	04/01/2022	Did Not Comply	POINT (-122.40688168 37.795287729)	-122.40688167967068	37.79528772941824	Chinatown	3	2025/03/10 10:44:55 AM	2025/03/10 11:04:05 AM
0690/016	1355 SUTTER ST	1355 SUTTER ST	94109	84778	Commercial	https://sfplanninggis.org/PIM/?tab=Property&search=0690/016	1975	04/01/2013	Did Not Comply	POINT (-122.422866317 37.787142042)	-122.42286631726473	37.78714204207437	Western Addition	2	2025/03/10 10:44:55 AM	2025/03/10 11:04:05 AM
0279/004	815 Hyde St.	827 HYDE ST	94109	16500	Commercial	https://sfplanninggis.org/PIM/?tab=Property&search=0279/004	1907	04/01/2029	Upcoming	POINT (-122.417256117 37.788505372)	-122.4172561174193	37.788505372417596	Nob Hill	3	2025/03/10 10:44:55 AM	2025/03/10 11:04:05 AM
6083/006	1120-SAN FRANCISCO, CA	4645 Mission St	94112	12286	Commercial	https://sfplanninggis.org/PIM/?tab=Property&search=6083/006	1922	04/01/2022	Did Not Comply	POINT (-122.434924594 37.723923119)	-122.43492459361804	37.7239231185358	Excelsior	11	2025/03/10 10:44:55 AM	2025/03/10 11:04:05 AM
0309/014	Town and Country Club	218 STOCKTON ST	94108	15237	Commercial	https://sfplanninggis.org/PIM/?tab=Property&search=0309/014	1908	04/01/2025	Upcoming	POINT (-122.406428006 37.787956359)	-122.40642800621328	37.787956359265664	Financial District/South Beach	3	2025/03/10 10:44:55 AM	2025/03/10 11:04:05 AM
0294/017	355 SUTTER ST	355 SUTTER ST	94108	17915	Commercial	https://sfplanninggis.org/PIM/?tab=Property&search=0294/017	1910	04/01/2018	Did Not Comply	POINT (-122.406260185 37.789266369)	-122.40626018536216	37.78926636917559	Financial District/South Beach	3	2025/03/10 10:44:55 AM	2025/03/10 11:04:05 AM
2979A/019	00392-Cinearts at The Empire	85 West Portal Ave.	94127	12576	Commercial	https://sfplanninggis.org/PIM/?tab=Property&search=2979A/019	1925	04/01/2024	Did Not Comply	POINT (-122.466308569 37.73976604)	-122.4663085691168	37.739766039646454	West of Twin Peaks	7	2025/03/10 10:44:55 AM	2025/03/10 11:04:05 AM
3582/085	429 CASTRO ST	429 CASTRO ST	94114	11000	Commercial	https://sfplanninggis.org/PIM/?tab=Property&search=3582/085	1922	04/01/2022	Did Not Comply	POINT (-122.434696208 37.762012943)	-122.43469620829235	37.762012942513735	Castro/Upper Market	8	2025/03/10 10:44:55 AM	2025/03/10 11:04:05 AM
0260/017	300 PINE ST	300 PINE ST	94104	62463	Mixed Residential	https://sfplanninggis.org/PIM/?tab=Property&search=0260/017	1909			POINT (-122.401242304 37.792256861)	-122.40124230403876	37.79225686097517	Financial District/South Beach	3	2025/03/10 10:44:55 AM	2025/03/10 11:04:05 AM
8703/006	Crescent Cove	420 BERRY ST	94107	180656	Mixed Residential	https://sfplanninggis.org/PIM/?tab=Property&search=8703/006	2007			POINT (-122.399083845 37.77200867)	-122.39908384547111	37.772008670102394	Mission Bay	6	2025/03/10 10:44:55 AM	2025/03/10 11:04:05 AM
4700/081	1195 INGALLS ST	1195 INGALLS ST	94124	77649	Mixed Residential	https://sfplanninggis.org/PIM/?tab=Property&search=4700/081	1996			POINT (-122.378984172 37.730212897)	-122.37898417245216	37.730212896799124	Bayview Hunters Point	10	2025/03/10 10:44:55 AM	2025/03/10 11:04:05 AM
3752/107	133 SHIPLEY ST	133 SHIPLEY ST	94107	198625	Mixed Residential	https://sfplanninggis.org/PIM/?tab=Property&search=3752/107	1973			POINT (-122.401235391 37.780724112)	-122.40123539099723	37.780724112113084	South of Market	6	2025/03/10 10:44:55 AM	2025/03/10 11:04:05 AM
0260/016	Insurance Exchange Building	433 CALIFORNIA ST	94104	116866	Commercial	https://sfplanninggis.org/PIM/?tab=Property&search=0260/016	1913	04/01/2019	Did Not Comply	POINT (-122.40166788 37.792686121)	-122.4016678795755	37.79268612125695	Financial District/South Beach	3	2025/03/10 10:44:55 AM	2025/03/10 11:04:05 AM
5843/007	Alemany	500 ALEMANY BLVD	94110	120130	Mixed Residential	https://sfplanninggis.org/PIM/?tab=Property&search=5843/007				POINT (-122.416616949 37.732777622)	-122.41661694930461	37.73277762166323	Bernal Heights	9	2025/03/10 10:44:55 AM	2025/03/10 11:04:05 AM
3572/012	2075 FOLSOM ST	2075 FOLSOM ST	94110	33089	Commercial	https://sfplanninggis.org/PIM/?tab=Property&search=3572/012	1969	04/01/2030	Upcoming	POINT (-122.41484253 37.764115846)	-122.414842530389	37.76411584568449	Mission	9	2025/03/10 10:44:55 AM	2025/03/10 11:04:05 AM
3789/858	88 TOWNSEND ST	88 TOWNSEND ST	94107	155595	Mixed Residential	https://sfplanninggis.org/PIM/?tab=Property&search=3789/858	2004			POINT (-122.39069696 37.781167045)	-122.39069695996872	37.78116704506472	Financial District/South Beach	6	2025/03/10 10:44:55 AM	2025/03/10 11:04:05 AM
0546/001B	Pacific Heights Inn	1555 Union St	94123	21270	Commercial	https://sfplanninggis.org/PIM/?tab=Property&search=0546/001B	1955	04/01/2027	Upcoming	POINT (-122.424848697 37.798155467)	-122.42484869721851	37.79815546729238	Marina	2	2025/03/10 10:44:55 AM	2025/03/10 11:04:05 AM
4591C/103	Pacific Pointe	350 FRIEDELL ST	94124	82000	Multifamily	https://sfplanninggis.org/PIM/?tab=Property&search=4591C/103				POINT (-122.370762148 37.727754996)	-122.37076214783511	37.72775499607036	Bayview Hunters Point	10	2025/03/10 10:44:55 AM	2025/03/10 11:04:05 AM
0140/007-A	Broadway Cove	88 Broadway	94111	118634	Multifamily	https://sfplanninggis.org/PIM/?tab=Property&search=0140/007-A				POINT (-122.399617949 37.799260126)	-122.39961794885112	37.79926012649787	Financial District/South Beach	3	2025/03/10 10:44:55 AM	2025/03/10 11:04:05 AM
7519/018	5235 DIAMOND HEIGHTS BLVD	5235 DIAMOND HEIGHTS BLVD	94131	84596	Mixed Residential	https://sfplanninggis.org/PIM/?tab=Property&search=7519/018	1972			POINT (-122.438589231 37.744690728)	-122.43858923080141	37.744690727918	Noe Valley	8	2025/03/10 10:44:55 AM	2025/03/10 11:04:05 AM
7341/001	2 GARCES DR	2 GARCES DR	94132	90635	Multifamily	https://sfplanninggis.org/PIM/?tab=Property&search=7341/001	1942			POINT (-122.479193879 37.715573382)	-122.47919387911766	37.71557338160075	Lakeshore	7	2025/03/10 10:44:55 AM	2025/03/10 11:04:05 AM
3957/002	350 Rhode Island - North	350 RHODE ISLAND - NORTH	94103	127100	Commercial	https://sfplanninggis.org/PIM/?tab=Property&search=3957/002	2002	04/01/2024	Did Not Comply	POINT (-122.403111122 37.765388383)	-122.4031111222034	37.76538838314329	Mission Bay	10	2025/03/10 10:44:55 AM	2025/03/10 11:04:05 AM
3766/262	333 Harrison ST	333 Harrison ST	94105	341718	Mixed Residential	https://sfplanninggis.org/PIM/?tab=Property&search=3766/262				POINT (-122.39128498 37.786512096)	-122.39128497984349	37.78651209632277	Financial District/South Beach	6	2025/03/10 10:44:55 AM	2025/03/10 11:04:05 AM
3552/046	1960 FOLSOM ST	1960 FOLSOM ST	94103	27603	Commercial	https://sfplanninggis.org/PIM/?tab=Property&search=3552/046	1937	04/01/2014	Did Not Comply	POINT (-122.41593075 37.765887841)	-122.4159307497702	37.76588784055287	Mission	9	2025/03/10 10:44:55 AM	2025/03/10 11:04:05 AM
0228/009	Wayfarer Restaurant	558 SACRAMENTO ST	94111	12000	Commercial	https://sfplanninggis.org/PIM/?tab=Property&search=0228/009	1907	04/01/2026	Upcoming	POINT (-122.402326336 37.794008516)	-122.40232633632696	37.79400851583238	Chinatown	3	2025/03/10 10:44:55 AM	2025/03/10 11:04:05 AM
0749/009	1200 FILLMORE ST	1200 FILLMORE ST	94115	126410	Mixed Residential	https://sfplanninggis.org/PIM/?tab=Property&search=0749/009	1973			POINT (-122.431807853 37.780922365)	-122.43180785337286	37.78092236462729	Western Addition	5	2025/03/10 10:44:55 AM	2025/03/10 11:04:05 AM
0606/002	2443 FILLMORE ST	2443 FILLMORE ST	94115	143124	Mixed Residential	https://sfplanninggis.org/PIM/?tab=Property&search=0606/002	1924			POINT (-122.434806067 37.792192989)	-122.43480606742021	37.792192988724345	Pacific Heights	2	2025/03/10 10:44:55 AM	2025/03/10 11:04:05 AM
0309/023	Young Chi Shing, Inc.	259 POST ST	94108	64800	Commercial	https://sfplanninggis.org/PIM/?tab=Property&search=0309/023	1909	04/01/2030	Upcoming	POINT (-122.406256838 37.78830265)	-122.4062568383338	37.788302650311095	Financial District/South Beach	3	2025/03/10 10:44:55 AM	2025/03/10 11:04:05 AM
5291/033	Bayview Commons	4435 3RD ST	94124	50775	Mixed Residential	https://sfplanninggis.org/PIM/?tab=Property&search=5291/033	2003			POINT (-122.389432008 37.737330082)	-122.38943200785245	37.73733008173351	Bayview Hunters Point	10	2025/03/10 10:44:55 AM	2025/03/10 11:04:05 AM
0346/016	433 TURK ST	433 TURK ST	94102	10065	Commercial	https://sfplanninggis.org/PIM/?tab=Property&search=0346/016	1907	04/01/2026	Upcoming	POINT (-122.416301387 37.782220014)	-122.41630138691671	37.78222001364122	Tenderloin	5	2025/03/10 10:44:55 AM	2025/03/10 11:04:05 AM
1007/008	3220 SACRAMENTO ST	3220 SACRAMENTO ST	94115	8000	Commercial	https://sfplanninggis.org/PIM/?tab=Property&search=1007/008	1924	04/01/2021	Did Not Comply	POINT (-122.4460104 37.788549315)	-122.44601039983765	37.788549315385566	Presidio Heights	2	2025/03/10 10:44:55 AM	2025/03/10 11:04:05 AM
2842/008	255 Woodside Avenue	255 WOODSIDE AV	94131	79469	Multifamily	https://sfplanninggis.org/PIM/?tab=Property&search=2842/008				POINT (-122.45523285 37.746582389)	-122.45523284973747	37.74658238854676	Twin Peaks	7	2025/03/10 10:44:55 AM	2025/03/10 11:04:05 AM
3774/073	274 Brannan JV LLC	274 BRANNAN ST	94107	110708	Commercial	https://sfplanninggis.org/PIM/?tab=Property&search=3774/073	1923	04/01/2024	Pending - Contracted	POINT (-122.391765538 37.782627479)	-122.39176553798283	37.78262747908506	Financial District/South Beach	6	2025/03/10 10:44:55 AM	2025/03/10 11:04:05 AM
3751/175	300 03RD ST	300 3RD ST	94107	428228	Mixed Residential	https://sfplanninggis.org/PIM/?tab=Property&search=3751/175	1990			POINT (-122.399082301 37.783180254)	-122.39908230133906	37.78318025432042	South of Market	6	2025/03/10 10:44:55 AM	2025/03/10 11:04:05 AM
6948/023	Lick Wilmerding High School	755 Ocean Ave	94112	114000	Commercial	https://sfplanninggis.org/PIM/?tab=Property&search=6948/023	1955	04/01/2027	Upcoming	POINT (-122.448979874 37.722322095)	-122.44897987360802	37.722322095323996	Oceanview/Merced/Ingleside	11	2025/03/10 10:44:55 AM	2025/03/10 11:04:05 AM
7295/035	2174-Stonestown Movie Theater	501 BUCKINGHAM WAY	94132	13300	Commercial	https://sfplanninggis.org/PIM/?tab=Property&search=7295/035	1948	04/01/2013	Did Not Comply	POINT (-122.479523767 37.729969306)	-122.47952376676429	37.72996930632776	Lakeshore	4	2025/03/10 10:44:55 AM	2025/03/10 11:04:05 AM
3707/008	58 2nd Street	60 2ND ST	94105	15900	Commercial	https://sfplanninggis.org/PIM/?tab=Property&search=3707/008	1906	04/01/2024	Did Not Comply	POINT (-122.400630478 37.788400013)	-122.4006304779827	37.78840001286346	Financial District/South Beach	6	2025/03/10 10:44:55 AM	2025/03/10 11:04:05 AM
6114/007D	651 DARTMOUTH ST	651 DARTMOUTH ST	94134	3015837	Multifamily	https://sfplanninggis.org/PIM/?tab=Property&search=6114/007D	1953			POINT (-122.409943244 37.722617242)	-122.40994324426433	37.722617242018195	Portola	9	2025/03/10 10:44:55 AM	2025/03/10 11:04:05 AM
3702/001	6 7TH ST	6 7TH ST	94103	48050	Commercial	https://sfplanninggis.org/PIM/?tab=Property&search=3702/001	1909	04/01/2021	Pending - Contracted	POINT (-122.412399729 37.78007136)	-122.41239972947669	37.78007136041525	South of Market	6	2025/03/10 10:44:55 AM	2025/03/10 11:04:05 AM
1078/029	2233 POST ST	2233 POST ST	94115	17155	Commercial	https://sfplanninggis.org/PIM/?tab=Property&search=1078/029	1961	04/01/2025	Upcoming	POINT (-122.438565539 37.78405378)	-122.43856553860644	37.784053780376624	Japantown	5	2025/03/10 10:44:55 AM	2025/03/10 11:04:05 AM
1535/041	4545 GEARY BLVD	4545 GEARY BLVD	94118	16295	Commercial	https://sfplanninggis.org/PIM/?tab=Property&search=1535/041	1941	04/01/2013	Did Not Comply	POINT (-122.46819111 37.780533501)	-122.46819110999161	37.780533500569355	Inner Richmond	1	2025/03/10 10:44:55 AM	2025/03/10 11:04:05 AM
0619/051	1788 CLAY ST	1788 CLAY ST	94109	124150	Mixed Residential	https://sfplanninggis.org/PIM/?tab=Property&search=0619/051	2014			POINT (-122.422249846 37.792569907)	-122.42224984595796	37.79256990655934	Russian Hill	3	2025/03/10 10:44:55 AM	2025/03/10 11:04:05 AM
0317/009	474 OFARRELL ST	474 OFARRELL ST	94102	10005	Commercial	https://sfplanninggis.org/PIM/?tab=Property&search=0317/009	1913	04/01/2024	Exempt - Demolition	POINT (-122.412669018 37.786089872)	-122.41266901836731	37.78608987218637	Tenderloin	5	2025/03/10 10:44:55 AM	2025/03/10 11:04:05 AM
3722/080	140 NEW MONTGOMERY ST	140 NEW MONTGOMERY ST	94103	333796	Commercial	https://sfplanninggis.org/PIM/?tab=Property&search=3722/080	1925	04/01/2024	Did Not Comply	POINT (-122.400005496 37.786612017)	-122.40000549600605	37.78661201700955	Financial District/South Beach	6	2025/03/10 10:44:55 AM	2025/03/10 11:04:05 AM
0692/013	1167-1199 Sutter Retail	1167-1199 SUTTER ST	94109	40042	Commercial	https://sfplanninggis.org/PIM/?tab=Property&search=0692/013	1910	04/01/2025	Upcoming	POINT (-122.419710646 37.787539905)	-122.41971064630066	37.78753990508336	Nob Hill	3	2025/03/10 10:44:55 AM	2025/03/10 11:04:05 AM
3710/018	50 Beale	50 BEALE ST	94105	747573	Commercial	https://sfplanninggis.org/PIM/?tab=Property&search=3710/018	1967	04/01/2031	Upcoming	POINT (-122.396457399 37.791238634)	-122.39645739908738	37.791238633975944	Financial District/South Beach	6	2025/03/10 10:44:55 AM	2025/03/10 11:04:05 AM
3821/002	180 HUBBELL ST	180 HUBBELL ST	94107	91523	Commercial	https://sfplanninggis.org/PIM/?tab=Property&search=3821/002	1900	04/01/2026	Upcoming	POINT (-122.397702778 37.767625389)	-122.3977027779781	37.767625389485225	Mission Bay	6	2025/03/10 10:44:55 AM	2025/03/10 11:04:05 AM
0731/018	1510 Eddy St	1510 Eddy St	94115	482898	Mixed Residential	https://sfplanninggis.org/PIM/?tab=Property&search=0731/018				POINT (-122.433249866 37.781811845)	-122.43324986556553	37.78181184540181	Western Addition	5	2025/03/10 10:44:55 AM	2025/03/10 11:04:05 AM
1724/038	Tenderloin Neighborhood Development Corporation	2550 IRVING ST	94122	34417	Commercial	https://sfplanninggis.org/PIM/?tab=Property&search=1724/038	1966	04/01/2024	Did Not Comply	POINT (-122.485143142 37.763431731)	-122.48514314249462	37.763431731064955	Sunset/Parkside	4	2025/03/10 10:44:55 AM	2025/03/10 11:04:05 AM
3706/061	735 MARKET ST	735 MARKET ST	94103	59300	Commercial	https://sfplanninggis.org/PIM/?tab=Property&search=3706/061	1907	04/01/2014	Did Not Comply	POINT (-122.404091812 37.786557981)	-122.4040918122802	37.78655798104366	Financial District/South Beach	6	2025/03/10 10:44:55 AM	2025/03/10 11:04:05 AM
0338/025	230 TURK ST	230 TURK ST	94102	126277	Mixed Residential	https://sfplanninggis.org/PIM/?tab=Property&search=0338/025	2008			POINT (-122.413125615 37.78325189)	-122.41312561502565	37.78325188976303	Tenderloin	5	2025/03/10 10:44:55 AM	2025/03/10 11:04:05 AM
4083/001A	2345 Harrison	2345 HARRISON ST	94110	53000	Commercial	https://sfplanninggis.org/PIM/?tab=Property&search=4083/001A	1924	04/01/2021	Did Not Comply	POINT (-122.412100919 37.759839412)	-122.41210091852831	37.759839411981346	Mission	9	2025/03/10 10:44:55 AM	2025/03/10 11:04:05 AM
0260/002	Bank of Orient	233 SANSOME ST	94104	53743	Commercial	https://sfplanninggis.org/PIM/?tab=Property&search=0260/002	1924	04/01/2026	Upcoming	POINT (-122.401314907 37.792609416)	-122.40131490695583	37.79260941607823	Financial District/South Beach	3	2025/03/10 10:44:55 AM	2025/03/10 11:04:05 AM
4017/003	1940 Bryant St.	1940 BRYANT ST.	94110	41500	Commercial	https://sfplanninggis.org/PIM/?tab=Property&search=4017/003	1923	04/01/2024	Did Not Comply	POINT (-122.410664104 37.762366866)	-122.41066410431013	37.762366865790426	Mission	9	2025/03/10 10:44:55 AM	2025/03/10 11:04:05 AM
0224/002	843 STOCKTON ST	843 STOCKTON ST	94108	12264	Commercial	https://sfplanninggis.org/PIM/?tab=Property&search=0224/002	1908	04/01/2027	Upcoming	POINT (-122.408182278 37.793737083)	-122.4081822779135	37.79373708290364	Chinatown	3	2025/03/10 10:44:55 AM	2025/03/10 11:04:05 AM
3787/005	630 3RD ST	630 3RD ST	94107	40340	Commercial	https://sfplanninggis.org/PIM/?tab=Property&search=3787/005	1924	04/01/2030	Upcoming	POINT (-122.394051107 37.779409168)	-122.39405110687743	37.77940916765665	South of Market	6	2025/03/10 10:44:55 AM	2025/03/10 11:04:05 AM
0796/004	Banneker Homes	1 BANNEKER WAY	94102	128285	Mixed Residential	https://sfplanninggis.org/PIM/?tab=Property&search=0796/004	1969			POINT (-122.428943748 37.77755714)	-122.42894374774666	37.77755713998209	Hayes Valley	5	2025/03/10 10:44:55 AM	2025/03/10 11:04:05 AM
0175/029	Sansome & Pacific Investments	755 SANSOME ST	94133	57758	Commercial	https://sfplanninggis.org/PIM/?tab=Property&search=0175/029	1927	04/01/2030	Upcoming	POINT (-122.402357394 37.79729866)	-122.40235739408773	37.797298660486184	Chinatown	3	2025/03/10 10:44:55 AM	2025/03/10 11:04:05 AM
3785/030	175 BLUXOME ST	175 BLUXOME ST	94107	135229	Mixed Residential	https://sfplanninggis.org/PIM/?tab=Property&search=3785/030	1998			POINT (-122.399574742 37.774378945)	-122.39957474223377	37.774378944585465	Mission Bay	6	2025/03/10 10:44:55 AM	2025/03/10 11:04:05 AM
0173/006	Parkfront	220 JACKSON ST	94111	24888	Commercial	https://sfplanninggis.org/PIM/?tab=Property&search=0173/006	1911	04/01/2028	Upcoming	POINT (-122.399885842 37.797009702)	-122.39988584230619	37.797009701940105	Financial District/South Beach	3	2025/03/10 10:44:55 AM	2025/03/10 11:04:05 AM
4108/003O	2400 3RD ST	2400 3RD ST	94107	22665	Commercial	https://sfplanninggis.org/PIM/?tab=Property&search=4108/003O	1937	04/01/2026	Upcoming	POINT (-122.388797911 37.759266466)	-122.38879791058305	37.759266465968594	Potrero Hill	10	2025/03/10 10:44:55 AM	2025/03/10 11:04:05 AM
3736/183	Foundry Square lll	505 HOWARD ST	94105	334982	Commercial	https://sfplanninggis.org/PIM/?tab=Property&search=3736/183	2014	04/01/2026	Upcoming	POINT (-122.396100669 37.787988663)	-122.39610066856972	37.78798866274369	Financial District/South Beach	6	2025/03/10 10:44:55 AM	2025/03/10 11:04:05 AM
0303/013B	644 HYDE ST	644 HYDE ST	94109	71151	Mixed Residential	https://sfplanninggis.org/PIM/?tab=Property&search=0303/013B	1917			POINT (-122.416361302 37.787062489)	-122.4163613017165	37.78706248891662	Tenderloin	3	2025/03/10 10:44:55 AM	2025/03/10 11:04:05 AM
3923/006	Hamms Building	1550 BRYANT ST	94103	205293	Commercial	https://sfplanninggis.org/PIM/?tab=Property&search=3923/006	1915	04/01/2025	Upcoming	POINT (-122.411142026 37.767561985)	-122.41114202608561	37.767561985077926	Mission	9	2025/03/10 10:44:55 AM	2025/03/10 11:04:05 AM
3731/094	1035 HOWARD ST	1035 HOWARD ST	94103	27996	Commercial	https://sfplanninggis.org/PIM/?tab=Property&search=3731/094	1930	04/01/2022	Did Not Comply	POINT (-122.407611678 37.77867601)	-122.40761167811937	37.778676010279824	South of Market	6	2025/03/10 10:44:55 AM	2025/03/10 11:04:05 AM
0235/022	50 California Street	50 CALIFORNIA ST	94111	785149	Commercial	https://sfplanninggis.org/PIM/?tab=Property&search=0235/022	1971	04/01/2026	Upcoming	POINT (-122.397347692 37.794053198)	-122.39734769199109	37.794053197953794	Financial District/South Beach	3	2025/03/10 10:44:55 AM	2025/03/10 11:04:05 AM
4014/002	Homeless Prenatal Program	2500 18TH ST	94110	26800	Commercial	https://sfplanninggis.org/PIM/?tab=Property&search=4014/002	1925	04/01/2029	Upcoming	POINT (-122.407561772 37.762196948)	-122.40756177236238	37.76219694812463	Mission	9	2025/03/10 10:44:55 AM	2025/03/10 11:04:05 AM
0237/001	303 Sacramento Street	251 FRONT ST	94111	19516	Commercial	https://sfplanninggis.org/PIM/?tab=Property&search=0237/001	1911	04/01/2025	Upcoming	POINT (-122.399216776 37.794126705)	-122.39921677631628	37.794126704925105	Financial District/South Beach	3	2025/03/10 10:44:55 AM	2025/03/10 11:04:05 AM
3707/058	Hearst Parking Center	51 3RD ST	94105	328885	Commercial	https://sfplanninggis.org/PIM/?tab=Property&search=3707/058	1970	04/01/2024	Did Not Comply	POINT (-122.402400798 37.787173168)	-122.40240079786857	37.787173167975226	Financial District/South Beach	6	2025/03/10 10:44:55 AM	2025/03/10 11:04:05 AM
0235/008	16 California Street (8 Cal)	2 CALIFORNIA ST	94111	38597	Commercial	https://sfplanninggis.org/PIM/?tab=Property&search=0235/008	1908	04/01/2030	Upcoming	POINT (-122.396711663 37.793823603)	-122.39671166264179	37.793823603305	Financial District/South Beach	3	2025/03/10 10:44:55 AM	2025/03/10 11:04:05 AM
3575/035	2165 MISSION ST	2165 MISSION ST	94110	16560	Commercial	https://sfplanninggis.org/PIM/?tab=Property&search=3575/035	1922	04/01/2020	Did Not Comply	POINT (-122.419057493 37.76238283)	-122.41905749332692	37.76238282985461	Mission	9	2025/03/10 10:44:55 AM	2025/03/10 11:04:05 AM
3768/021	38 BRYANT ST	38 BRYANT ST	94105	167778	Mixed Residential	https://sfplanninggis.org/PIM/?tab=Property&search=3768/021	1994			POINT (-122.388972684 37.787465235)	-122.38897268423212	37.78746523518231	Financial District/South Beach	6	2025/03/10 10:44:55 AM	2025/03/10 11:04:05 AM
3701/059	Hotel Whitcomb	1215 MARKET ST	94103	322936	Commercial	https://sfplanninggis.org/PIM/?tab=Property&search=3701/059	1911	04/01/2019	Pending - Contracted	POINT (-122.41479116 37.777946821)	-122.41479115990082	37.77794682058295	South of Market	6	2025/03/10 10:44:55 AM	2025/03/10 11:04:05 AM
0294/011	Niketown	278 POST ST	94108	84172	Commercial	https://sfplanninggis.org/PIM/?tab=Property&search=0294/011	1910	04/01/2024	Did Not Comply	POINT (-122.406551748 37.788809521)	-122.40655174753778	37.78880952108143	Financial District/South Beach	3	2025/03/10 10:44:55 AM	2025/03/10 11:04:05 AM
0294/008	228-240 Post SF	228 POST ST	94108	38294	Commercial	https://sfplanninggis.org/PIM/?tab=Property&search=0294/008	1909	04/01/2024	Did Not Comply	POINT (-122.40592081 37.788879495)	-122.40592080962803	37.788879494803346	Financial District/South Beach	3	2025/03/10 10:44:55 AM	2025/03/10 11:04:05 AM
0693/006	900 GEARY ST	900 GEARY ST	94109	69870	Mixed Residential	https://sfplanninggis.org/PIM/?tab=Property&search=0693/006	1909			POINT (-122.41837677 37.786242336)	-122.41837677037188	37.786242336059026	Tenderloin	3	2025/03/10 10:44:55 AM	2025/03/10 11:04:05 AM
3532/091	245 VALENCIA ST	245 VALENCIA ST	94103	39000	Commercial	https://sfplanninggis.org/PIM/?tab=Property&search=3532/091	1995	04/01/2026	Upcoming	POINT (-122.42180637 37.768777374)	-122.42180636975151	37.768777374239306	Mission	9	2025/03/10 10:44:55 AM	2025/03/10 11:04:05 AM
0293/005	126 Post Street Building	126 POST ST	94108	43354	Commercial	https://sfplanninggis.org/PIM/?tab=Property&search=0293/005	1909	04/01/2030	Upcoming	POINT (-122.404291663 37.78910165)	-122.4042916626922	37.78910165044445	Financial District/South Beach	3	2025/03/10 10:44:55 AM	2025/03/10 11:04:05 AM
0173/007	Ban-Jackson	244 JACKSON ST	94111	30229	Commercial	https://sfplanninggis.org/PIM/?tab=Property&search=0173/007	1913	04/01/2018	Did Not Comply	POINT (-122.400255631 37.797026897)	-122.40025563080042	37.79702689742216	Financial District/South Beach	3	2025/03/10 10:44:55 AM	2025/03/10 11:04:05 AM
0287/011	256 Sutter Street	256 SUTTER ST	94108	13608	Commercial	https://sfplanninggis.org/PIM/?tab=Property&search=0287/011	1911	04/01/2024	Did Not Comply	POINT (-122.404897306 37.789872518)	-122.40489730636338	37.78987251756429	Financial District/South Beach	3	2025/03/10 10:44:55 AM	2025/03/10 11:04:05 AM
0330/023	Hotel Abri	119 ELLIS ST	94102	65892	Commercial	https://sfplanninggis.org/PIM/?tab=Property&search=0330/023	1907	04/01/2025	Upcoming	POINT (-122.408355522 37.785186039)	-122.40835552229036	37.78518603910808	Tenderloin	3	2025/03/10 10:44:55 AM	2025/03/10 11:04:05 AM
3958/001B	Chip Factory	365 VERMONT ST	94103	12465	Commercial	https://sfplanninggis.org/PIM/?tab=Property&search=3958/001B	1984	04/01/2024	Did Not Comply	POINT (-122.404233452 37.765158275)	-122.40423345245563	37.76515827519486	Mission Bay	10	2025/03/10 10:44:55 AM	2025/03/10 11:04:05 AM
0164/010	450 Pacific KYL	450 PACIFIC AVE	94133	26476	Commercial	https://sfplanninggis.org/PIM/?tab=Property&search=0164/010	1906	04/01/2029	Upcoming	POINT (-122.403062351 37.797636249)	-122.40306235076172	37.797636248797595	North Beach	3	2025/03/10 10:44:55 AM	2025/03/10 11:04:05 AM
1924/004	1601 19TH AVE	1601 19TH AVE	94122	90359	Mixed Residential	https://sfplanninggis.org/PIM/?tab=Property&search=1924/004	2002			POINT (-122.477221162 37.757265911)	-122.47722116177921	37.75726591104024	Sunset/Parkside	4	2025/03/10 10:44:55 AM	2025/03/10 11:04:05 AM
1692/009	875 LA PLAYA	875 LA PLAYA	94121	95274	Mixed Residential	https://sfplanninggis.org/PIM/?tab=Property&search=1692/009	1983			POINT (-122.510308483 37.771697577)	-122.5103084829746	37.771697577278815	Outer Richmond	1	2025/03/10 10:44:55 AM	2025/03/10 11:04:05 AM
2718A/011	1 BURNETT AVE	1 BURNETT AVE	94131	75553	Multifamily	https://sfplanninggis.org/PIM/?tab=Property&search=2718A/011	1983			POINT (-122.444568486 37.756831756)	-122.44456848615634	37.75683175575783	Twin Peaks	8	2025/03/10 10:44:55 AM	2025/03/10 11:04:05 AM
3793/005	88 KING ST	88 KING ST	94107	425340	Mixed Residential	https://sfplanninggis.org/PIM/?tab=Property&search=3793/005	2000			POINT (-122.389624981 37.780630229)	-122.3896249811453	37.780630229054736	Mission Bay	6	2025/03/10 10:44:55 AM	2025/03/10 11:04:05 AM
0030/012	Petco Building	2598 TAYLOR ST	94133	14400	Commercial	https://sfplanninggis.org/PIM/?tab=Property&search=0030/012	1986	04/01/2025	Upcoming	POINT (-122.415074072 37.806051461)	-122.41507407237162	37.80605146111094	North Beach	3	2025/03/10 10:44:55 AM	2025/03/10 11:04:05 AM
3707/014	79 New Montgomery, LLC	77 NEW MONTGOMERY ST	94105	147509	Commercial	https://sfplanninggis.org/PIM/?tab=Property&search=3707/014	1907	04/01/2030	Upcoming	POINT (-122.400535328 37.787889714)	-122.40053532810582	37.78788971412972	Financial District/South Beach	6	2025/03/10 10:44:55 AM	2025/03/10 11:04:05 AM
0069/027	1150 LOMBARD ST	1150 LOMBARD ST	94109	109584	Mixed Residential	https://sfplanninggis.org/PIM/?tab=Property&search=0069/027	1989			POINT (-122.420560561 37.802366109)	-122.42056056111403	37.80236610854523	Russian Hill	3	2025/03/10 10:44:55 AM	2025/03/10 11:04:05 AM
3751/170	Mendelsohn House	737 FOLSOM ST	94107	141000	Mixed Residential	https://sfplanninggis.org/PIM/?tab=Property&search=3751/170	1988			POINT (-122.399734884 37.782678763)	-122.39973488411941	37.78267876254772	South of Market	6	2025/03/10 10:44:55 AM	2025/03/10 11:04:05 AM
4105/009	800 INDIANA ST	800 INDIANA ST	94107	342860	Multifamily	https://sfplanninggis.org/PIM/?tab=Property&search=4105/009	2015			POINT (-122.391729047 37.759196403)	-122.39172904694243	37.759196403274565	Potrero Hill	10	2025/03/10 10:44:55 AM	2025/03/10 11:04:05 AM
1078/072	2186 Geary	2186 GEARY BLVD	94115	19751	Commercial	https://sfplanninggis.org/PIM/?tab=Property&search=1078/072	1984	04/01/2020	Did Not Comply	POINT (-122.43929347 37.78369926)	-122.43929347035875	37.78369926000016	Japantown	5	2025/03/10 10:44:55 AM	2025/03/10 11:04:05 AM
0293/003	133 KEARNY ST	133 KEARNY ST	94108	36150	Commercial	https://sfplanninggis.org/PIM/?tab=Property&search=0293/003	1910	04/01/2029	Upcoming	POINT (-122.404042171 37.789234583)	-122.40404217125113	37.78923458336899	Financial District/South Beach	3	2025/03/10 10:44:55 AM	2025/03/10 11:04:05 AM
0833/003	National Center for International Schools	150 OAK ST	94102	211425	Commercial	https://sfplanninggis.org/PIM/?tab=Property&search=0833/003	1948	04/01/2026	Upcoming	POINT (-122.421832141 37.775380554)	-122.42183214129061	37.77538055375136	Hayes Valley	5	2025/03/10 10:44:55 AM	2025/03/10 11:04:05 AM
0298/012	666 POST ST	666 POST ST	94102	81426	Mixed Residential	https://sfplanninggis.org/PIM/?tab=Property&search=0298/012				POINT (-122.412900782 37.787905657)	-122.41290078235754	37.787905657259486	Nob Hill	3	2025/03/10 10:44:55 AM	2025/03/10 11:04:05 AM
6596/022	10 29TH ST	10 29TH ST	94110	96842	Mixed Residential	https://sfplanninggis.org/PIM/?tab=Property&search=6596/022	2004			POINT (-122.421343683 37.744274059)	-122.42134368283803	37.74427405893754	Bernal Heights	9	2025/03/10 10:44:55 AM	2025/03/10 11:04:05 AM
0176/013	Sentinel Building	141 COLUMBUS AVE	94133	11904	Commercial	https://sfplanninggis.org/PIM/?tab=Property&search=0176/013	1905	04/01/2029	Upcoming	POINT (-122.405021236 37.796534875)	-122.405021236137	37.796534875196436	Chinatown	3	2025/03/10 10:44:55 AM	2025/03/10 11:04:05 AM
3573/006	S.H. Frank Building	3075 17TH ST	94110	43974	Commercial	https://sfplanninggis.org/PIM/?tab=Property&search=3573/006	1923	04/01/2025	Upcoming	POINT (-122.414661378 37.76337937)	-122.41466137751861	37.76337937019019	Mission	9	2025/03/10 10:44:55 AM	2025/03/10 11:04:05 AM
0854/006	64 GOUGH ST	64 GOUGH ST	94102	54142	Mixed Residential	https://sfplanninggis.org/PIM/?tab=Property&search=0854/006	1911			POINT (-122.422065844 37.773435025)	-122.42206584424996	37.77343502514149	Hayes Valley	6	2025/03/10 10:44:55 AM	2025/03/10 11:04:05 AM
0568/012	1890 BROADWAY	1890 BROADWAY	94109	62268	Mixed Residential	https://sfplanninggis.org/PIM/?tab=Property&search=0568/012	1938			POINT (-122.428126822 37.795492439)	-122.42812682192361	37.79549243933758	Pacific Heights	2	2025/03/10 10:44:55 AM	2025/03/10 11:04:05 AM
0324/027	GLIDE - 330 Ellis St	330 ELLIS ST	94102	47783	Commercial	https://sfplanninggis.org/PIM/?tab=Property&search=0324/027	1930	04/01/2024	Did Not Comply	POINT (-122.411697266 37.785291376)	-122.41169726550727	37.785291375550536	Tenderloin	5	2025/03/10 10:44:55 AM	2025/03/10 11:04:05 AM
3733/017	The Salvation Army - 832 Folsom	832 FOLSOM ST	94103	86623	Commercial	https://sfplanninggis.org/PIM/?tab=Property&search=3733/017	1986	04/01/2030	Upcoming	POINT (-122.402318052 37.781580769)	-122.40231805154568	37.78158076866191	South of Market	6	2025/03/10 10:44:55 AM	2025/03/10 11:04:05 AM
0330/002	45 POWELL ST	45 POWELL ST	94102	24168	Commercial	https://sfplanninggis.org/PIM/?tab=Property&search=0330/002	1909	04/01/2024	Did Not Comply	POINT (-122.408041614 37.785178309)	-122.40804161419855	37.78517830931824	Tenderloin	3	2025/03/10 10:44:55 AM	2025/03/10 11:04:05 AM
0040/017	295 BAY ST	295 BAY ST	94133	35590	Commercial	https://sfplanninggis.org/PIM/?tab=Property&search=0040/017	1968	04/01/2024	Did Not Comply	POINT (-122.411609204 37.805548175)	-122.41160920372347	37.80554817546499	North Beach	3	2025/03/10 10:44:55 AM	2025/03/10 11:04:05 AM
0732/007	Fillmore Marketplace Apartments	1223 Webster St	94115	129013	Mixed Residential	https://sfplanninggis.org/PIM/?tab=Property&search=0732/007	1996			POINT (-122.431044723 37.781955383)	-122.43104472277616	37.78195538267228	Western Addition	5	2025/03/10 10:44:55 AM	2025/03/10 11:04:05 AM
3778/001B	530 5TH ST	530 5TH ST	94107	47488	Commercial	https://sfplanninggis.org/PIM/?tab=Property&search=3778/001B	1925	04/01/2013	Did Not Comply	POINT (-122.400259576 37.776876401)	-122.40025957598621	37.77687640123252	South of Market	6	2025/03/10 10:44:55 AM	2025/03/10 11:04:05 AM
0224/034	10 MILLER PL	10 MILLER PL	94108	124402	Mixed Residential	https://sfplanninggis.org/PIM/?tab=Property&search=0224/034	1963			POINT (-122.40891022 37.793227602)	-122.40891022021279	37.793227601725086	Chinatown	3	2025/03/10 10:44:55 AM	2025/03/10 11:04:05 AM
0855/053	8 OCTAVIA ST	8 OCTAVIA ST	94102	65750	Multifamily	https://sfplanninggis.org/PIM/?tab=Property&search=0855/053	2014			POINT (-122.423361247 37.772549174)	-122.42336124687348	37.77254917355148	Hayes Valley	6	2025/03/10 10:44:55 AM	2025/03/10 11:04:05 AM
3948/004	1050 17TH ST	1050 17TH ST	94107	57783	Multifamily	https://sfplanninggis.org/PIM/?tab=Property&search=3948/004	2002			POINT (-122.394450388 37.76560887)	-122.39445038823747	37.76560887039491	Mission Bay	10	2025/03/10 10:44:55 AM	2025/03/10 11:04:05 AM
